id,locality_name,Postal_code,Price,Subtype,Number_of_bedrooms,Living_area,street,number,latitude,longitude,Open_fire,Swimming_Pool,hasTerrace,terraceSurface,gardenSurface,Kitchen_type,Number_of_facades,State_of_building,Furnished,epc,landSurface,price_per_sqm,price_per_sqm_land
20252354,Ronse,9600,319000,House,3,125,Rotterij,148,50.744176,3.625722199999999,0,0,1,0,370,null,4,To renovate,0,F,767.0,2552.0,415.90612777053457
20251003,Geraardsbergen,9500,299999,House,3,167,Pirrestraat,17,50.7521206,3.9254954,0,0,1,0,895,Installed,2,Good,0,D,1050.0,1796.4011976047905,285.7133333333333
20252002,Mechelen,2800,275000,House,3,154,Caputsteenstraat,150,51.0332691,4.4917953,0,0,1,10,20,Semi equipped,2,To renovate,0,E,120.0,1785.7142857142858,2291.6666666666665
20252352,Gooik,1755,295000,House,3,172,Strijlandstraat,45,50.7918775,4.0842927,0,0,1,0,300,null,3,To renovate,0,F,309.0,1715.1162790697674,954.6925566343042
20250577,Sint-Katelijne-Waver,2860,345000,Apartment block,1,43,Ijzerenveld,4,51.0349503,4.5113723,0,0,1,4,0,null,2,Good,0,B,70.0,8023.2558139534885,4928.571428571428
20250989,Oetingen,1755,560000,Mixed use building,4,350,Blijkheerstraat,70,50.7754117,4.0470571,0,0,1,40,32,Installed,3,Good,0,C,,1600.0,
20250985,Oetingen,1755,560000,House,4,350,Blijkheerstraat,70,50.7754117,4.0470571,0,0,1,40,32,Installed,3,Good,0,C,,1600.0,
20251715,Dilbeek,1700,715000,House,3,280,Herdebeekstraat 94-94A,0,50.84061,4.2284253,0,1,1,36,374,null,3,As new,0,C,374.0,2553.5714285714284,1911.764705882353
20248858,Woluwe-Saint-Lambert,1200,790000,House,5,349,Rue De La Cambre - Terkamerenstraat,296,50.8393334,4.430145,1,0,1,14,60,Usa hyper equipped,2,Good,0,F,160.0,2263.610315186246,4937.5
20245694,Herzele,9550,198800,House,3,125,Stationsstraat,173,50.8945675,3.8843418,0,0,1,45,106,Semi equipped,2,To renovate,0,F,250.0,1590.4,795.2
20250831,Wilrijk,2610,299000,House,3,132,Egied Segerslaan,42,51.1772667,4.3753687,0,0,0,0,40,null,2,As new,0,D,145.0,2265.151515151515,2062.0689655172414
20250541,Brecht,2960,469000,House,3,153,Cambeenbos Laan D,3,51.3100174,4.5751228,1,0,1,0,0,Semi equipped,4,To renovate,0,D,,3065.359477124183,
20251565,Etterbeek,1040,870000,Apartment block,4,239,Chaussée Saint-Pierre,316,50.8372486,4.397203,0,0,1,5,0,Installed,2,Good,1,G,239.0,3640.1673640167364,3640.1673640167364
20252349,Herent,3020,890000,Villa,5,240,Nan,15,50.90918929999999,4.6572688,0,0,1,50,624,null,4,Just renovated,0,A,799.0,3708.3333333333335,1113.892365456821
20243528,Beersel,1650,499000,House,2,110,Prins Boudewijnlaan,5,50.7281225,4.275038299999999,0,0,1,0,5200,Installed,4,Good,0,F,5390.0,4536.363636363636,92.57884972170686
20246830,Niel,2845,284000,House,3,148,Schuttershofstraat,49,51.1081012,4.3239722,0,0,0,0,28,Installed,2,Good,0,C,119.0,1918.918918918919,2386.5546218487393
20246074,Roeselare,8800,339000,House,3,164,Weststraat,131,50.9481829,3.1109998,0,0,1,15,40,Installed,3,Good,0,A,108.0,2067.0731707317073,3138.8888888888887
20246399,Merksem,2170,349000,Town house,3,193,Bredabaan,816B,51.25249789999999,4.4569918,0,0,0,0,53,Installed,2,To be done up,0,D,135.0,1808.2901554404145,2585.185185185185
20248788,Merchtem,1785,550000,Villa,3,193,Terlinden,32,50.96874769999999,4.2404353,0,0,1,0,0,Installed,4,Good,0,B,611.0,2849.740932642487,900.1636661211129
20246734,Oedelem,8730,635000,House,3,171,Bruggestraat,175,51.1751982,3.3136539,1,0,1,25,1310,Hyper equipped,4,As new,0,D,1780.0,3713.4502923976606,356.7415730337079
20221782,Deurne,2100,284000,House,3,89,Boekenbergplein,10,51.2031663,4.462396900000001,0,0,1,3,97,Semi equipped,2,To be done up,0,E,233.0,3191.0112359550562,1218.8841201716739
20236558,Antwerpen,2018,389900,House,3,150,Kroonstraat,134,51.21248509999999,4.4293732,0,0,1,5,19,Hyper equipped,2,Just renovated,0,C,80.0,2599.3333333333335,4873.75
20250996,Geraardsbergen,9500,160000,House,4,147,Warandestraat,36,50.7725926,3.8737336,0,0,1,22,0,Installed,2,To be done up,0,C,140.0,1088.4353741496598,1142.857142857143
20250987,Geraardsbergen,9500,160000,Mixed use building,4,147,Warandestraat,36,50.7725926,3.8737336,0,0,1,22,0,Installed,2,To be done up,0,C,140.0,1088.4353741496598,1142.857142857143
20251656,Juprelle,4450,348500,House,3,125,Chaussée De Tongres,105,50.6894725,5.536823399999999,0,0,1,53,563,Installed,3,Good,0,D,670.0,2788.0,520.1492537313433
20251360,Herent,3020,409000,House,2,160,Hof Ter Bekelaan,15,50.8848977,4.6704491,0,0,1,15,380,Installed,0,To be done up,0,F,757.0,2556.25,540.2906208718626
20250139,Drogenbos,1620,449000,Apartment block,3,159,Rue Longue,315,50.7966859,4.3109453,0,0,1,9,115,Installed,3,Good,0,E,202.0,2823.8993710691825,2222.772277227723
20242082,Dworp,1653,359000,House,2,78,Kerkstraat,147,50.7264996,4.307471,0,0,1,0,0,Installed,4,Good,0,D,524.0,4602.5641025641025,685.1145038167939
20249492,Stene,8400,345000,House,3,223,Vanderstichelenstraat,130,51.213318,2.9360503,0,0,1,10,66,null,2,As new,0,C,180.0,1547.085201793722,1916.6666666666667
20245133,Woluwe-Saint-Lambert,1200,795000,House,5,225,Avenue Du Prince Héritier,181,50.8469421,4.4082675,0,0,1,15,120,Installed,2,To renovate,0,G,200.0,3533.3333333333335,3975.0
20241609,Edegem,2650,384950,House,3,160,Henri Dunantstraat,51,51.1618664,4.4484278,0,0,0,0,70,Semi equipped,2,To be done up,0,D,170.0,2405.9375,2264.4117647058824
20249970,Wépion,5100,375000,House,3,186,Jaune Voie,99,50.4117675,4.8659463,0,0,1,10,1917,Installed,4,Just renovated,0,D,1917.0,2016.1290322580646,195.61815336463224
20251945,Sint-Denijs,8554,534000,Country cottage,2,170,Kooigemstraat,83,50.74688889999999,3.3455148,0,0,1,0,0,Installed,3,Good,0,B,,3141.176470588235,
20246192,Hoboken,2660,295000,House,3,120,Leopoldlei,140,51.1813046,4.3525621,0,0,0,0,28,Usa installed,2,Good,0,B,82.0,2458.3333333333335,3597.560975609756
20246645,Tamines,5060,319000,House,4,188,Avenue Président Roosevelt,117,50.4395523,4.607527399999999,0,0,1,13,608,Hyper equipped,2,Good,0,F,816.0,1696.8085106382978,390.9313725490196
20247068,Schaerbeek,1030,399000,Apartment block,5,200,Rue Van Droogenbroeck,22,50.8770619,4.3885923,0,0,1,10,30,Semi equipped,2,To be done up,0,G,100.0,1995.0,3990.0
20246809,Balegem,9860,699000,House,7,876,Walzegem,34,50.9010454,3.8062828,0,0,1,227,3263,Semi equipped,0,To renovate,0,F,4938.0,797.945205479452,141.55528554070474
20246808,Balegem,9860,699000,Mixed use building,7,876,Walzegem,34,50.9010454,3.8062828,0,0,1,227,3263,Semi equipped,0,To renovate,0,F,4938.0,797.945205479452,141.55528554070474
20250939,Tienen,3300,315000,House,3,194,Ijzerstraat,17,50.8125161,4.938025199999999,0,0,0,0,25,null,2,To renovate,0,E,150.0,1623.7113402061855,2100.0
20249586,Oordegem,9340,319000,House,3,117,Dokter Prieëlslaan,46,50.9601215,3.903695399999999,0,0,1,0,0,Installed,3,Good,0,E,381.0,2726.4957264957266,837.2703412073491
20252046,Torhout,8820,329000,House,4,198,Koolskampstraat,41,51.05220689999999,3.1172268,0,0,1,15,643,null,4,Good,0,D,1055.0,1661.6161616161617,311.8483412322275
20247860,Scheldewindeke,9860,345000,House,3,151,Gaverse Steenweg,49,50.9363641,3.7598027,0,0,1,16,16,Hyper equipped,0,Good,0,B,112.0,2284.7682119205297,3080.3571428571427
20251182,Aalter,9880,379000,House,3,182,Manewaarde,22,51.0959886,3.4318261,0,0,1,0,631,Installed,4,Good,0,D,724.0,2082.4175824175823,523.4806629834254
20251947,Brunehaut,7623,469000,Villa,3,200,Chemin De Rumegies,6,50.4917042,3.3768263,0,0,1,0,0,Installed,4,Good,0,C,2876.0,2345.0,163.07371349095968
20252355,Kaster,8572,598000,Villa,3,200,Bevrijdingslaan,80a,50.8139108,3.4933341,0,1,1,0,0,Installed,4,Good,0,B,,2990.0,
20249750,Woluwe-Saint-Pierre,1150,815000,House,5,270,Avenue Van Crombrugghe,190,50.8303264,4.464635299999999,0,0,1,20,175,Hyper equipped,3,As new,0,D,335.0,3018.5185185185187,2432.8358208955224
20245482,Sint-Gillis-Waas,9170,415000,House,2,155,Aststraat,42,51.2135591,4.1147473,1,0,1,30,210,Installed,0,Good,0,C,2639.0,2677.4193548387098,157.2565365668814
20244687,Oosterzele,9860,455000,House,3,147,Poststraat,46,50.9223051,3.7899441,0,0,1,16,77,Hyper equipped,3,Just renovated,0,A,217.0,3095.2380952380954,2096.7741935483873
20246780,Saint-Josse-Ten-Noode,1210,549000,Apartment block,8,350,Rue Dupont,93,50.8586283,4.3673321,0,0,0,0,30,null,3,To be done up,0,G,30.0,1568.5714285714287,18300.0
20247131,Kortrijk,8510,890000,House,3,400,Pottelberg,157,50.8062881,3.2470855,0,1,1,80,900,Hyper equipped,4,Good,0,F,1980.0,2225.0,449.4949494949495
20242318,Bruxelles,1120,477000,House,5,186,Rue Des Faînes,214,50.8903457,4.3860201,1,0,1,30,120,null,2,As new,0,D,120.0,2564.516129032258,3975.0
20244297,Sprimont,4140,298000,House,4,242,Rue Du Centre,32,50.5041015,5.662092599999999,0,0,1,80,147,Installed,2,Good,0,F,358.0,1231.404958677686,832.4022346368715
20236559,Brecht,2960,479000,Villa,4,226,Cambeenbos Laan B,36,51.3110383,4.5698392,0,0,0,0,780,Installed,4,To be done up,0,D,871.0,2119.4690265486724,549.9425947187141
20238170,Berchem,2600,849000,House,4,232,Floraliënlaan,429,51.1801052,4.4272497,0,0,0,0,70,Hyper equipped,2,Just renovated,0,A,162.0,3659.4827586206898,5240.740740740741
20247460,De Pinte,9840,375000,House,3,149,Langevelddreef,73,51.0020144,3.644326999999999,0,0,1,0,361,null,0,Good,0,D,361.0,2516.778523489933,1038.781163434903
20250986,Zwalm,9630,525000,House,6,357,Heuvelgem,30,50.8433509,3.729519,0,0,0,0,0,Installed,4,Good,0,D,,1470.5882352941176,
20250129,Antwerpen Borgerhout,2140,625000,Town house,3,180,Milisstraat,79,51.2138637,4.4294568,0,0,1,11,53,Hyper equipped,2,As new,0,B,122.0,3472.222222222222,5122.950819672131
20250988,Geraardsbergen,9500,720000,House,3,286,Lembosstraat,17,50.7925774,3.9501224,0,0,0,0,0,Installed,4,Good,0,C,26990.0,2517.4825174825173,26.676546869210817
20251186,Onze-Lieve-Vrouw-Lombeek,1760,749000,House,5,375,Koning Albertstraat,41,50.8282843,4.0971272,0,0,1,65,2847,Installed,4,To be done up,0,D,3548.0,1997.3333333333333,211.10484780157836
20250402,Woluwe-Saint-Pierre,1150,995000,Villa,4,350,Clos D'Orléans,13,50.8265538,4.4487406,0,0,1,60,400,Installed,4,Good,0,E,712.0,2842.8571428571427,1397.4719101123596
20243677,Sint-Kruis,8310,369000,House,4,144,Moerkerkse Steenweg,370,51.2137384,3.262185,0,0,1,25,30,Installed,3,As new,0,C,150.0,2562.5,2460.0
20242604,Woluwe-Saint-Pierre,1150,650000,House,3,142,Rue Félix De Keuster,61,50.8388107,4.466824,0,0,1,12,100,Hyper equipped,2,Good,0,G,160.0,4577.4647887323945,4062.5
20246094,Grâce-Berleur,4460,132000,House,2,76,Rue Giacomo Mattéoti,16,50.6429291,5.5066149,0,0,1,20,105,Semi equipped,2,To renovate,0,G,190.0,1736.842105263158,694.7368421052631
20244980,Dentergem,8720,178000,House,3,171,Kapittelstraat,44,50.96372909999999,3.430349,0,0,1,40,383,null,2,To renovate,0,F,681.0,1040.93567251462,261.3803230543319
20245487,Lo-Reninge,8647,195000,House,4,194,Ooststraat,85,50.9824438,2.7560352,0,0,0,0,286,null,3,To renovate,0,F,477.0,1005.1546391752578,408.8050314465409
20246017,Ruddervoorde,8020,269000,House,3,160,Claeysstraat,16,51.0782199,3.1725074,1,0,0,0,78,null,2,Good,0,D,225.0,1681.25,1195.5555555555557
20245402,Geraardsbergen,9500,279000,House,3,224,Voldersstraat,55,50.7787747,3.8840136,0,0,1,80,500,null,3,To be done up,0,E,656.0,1245.5357142857142,425.3048780487805
20248783,Erpe,9420,299000,House,3,155,Bossestraat,18,50.9450994,3.9767625,0,0,1,0,0,Installed,4,Good,0,E,266.0,1929.032258064516,1124.0601503759399
20244971,Gent,9000,345000,House,4,145,Schaliestraat,8,51.0624432,3.7042545,0,0,0,0,38,null,2,Good,0,C,108.0,2379.310344827586,3194.4444444444443
20247038,Hooglede,8830,349000,House,4,234,Roeselarestraat,104,50.9651051,3.0941402,0,0,1,10,1100,null,4,Good,0,C,1398.0,1491.4529914529915,249.6423462088698
20244012,Kruisem,9772,250000,House,3,141,Nazarethsesteenweg,101,50.9278095,3.5813885,0,0,0,0,300,Semi equipped,4,To renovate,0,F,,1773.049645390071,
20244298,Hannut,4280,289000,House,2,130,Avenue Des Coquelicots,9,50.6810188,5.0838475,0,0,1,20,400,Installed,4,Good,0,E,500.0,2223.076923076923,578.0
20251655,Rochefort,5580,149000,House,4,305,Rue De La Lhomme,1,50.1625016,5.2602351,0,0,1,16,0,Not installed,3,To be done up,0,C,301.0,488.5245901639344,495.01661129568106
20251399,Oudenaarde,9700,165000,House,3,117,Heurnestraat,100,50.8748057,3.6225559,0,0,1,0,0,null,0,To renovate,1,F,293.0,1410.2564102564102,563.1399317406143
20250923,Tielt,8700,179000,House,2,109,Grote Hulststraat,5,50.9951835,3.3276587,0,0,1,15,0,Installed,0,Good,0,D,71.0,1642.2018348623853,2521.1267605633802
20244908,Attenhoven,3404,319900,House,3,151,Trulstraat,11,50.7654277,5.0947702,0,0,1,0,0,Installed,0,Just renovated,0,C,,2118.543046357616,
20251076,Aarschot,3202,359000,House,2,120,Roth,5,50.9778563,4.8798362,0,0,1,0,0,Not installed,4,To be done up,0,C,1988.0,2991.6666666666665,180.58350100603622
20249720,Serskamp,9260,374500,House,5,511,Anker,18,50.99099810000001,3.9216332,1,0,1,25,85,null,4,Good,0,F,,732.8767123287671,
20247414,Sterrebeek,1933,389000,House,4,134,Vossemlaan,97,50.8596978,4.5229854,0,0,0,0,200,Installed,0,To renovate,0,D,310.0,2902.9850746268658,1254.8387096774193
20250395,Assebroek,8310,465000,Town house,3,208,Prinses Paolalaan,38,51.19538739999999,3.2500652,0,0,1,45,0,null,3,As new,0,B,360.0,2235.576923076923,1291.6666666666667
20243204,Gent Mariakerke,9030,620000,House,4,265,Brugsevaart,62,51.0777017,3.6790678,0,0,1,30,478,Hyper equipped,3,Good,0,B,629.0,2339.622641509434,985.691573926868
20246112,Ronse,9600,125000,House,3,134,Opgeëistenstraat,73,50.75225289999999,3.5921422,0,0,1,0,0,Semi equipped,2,To renovate,0,F,140.0,932.8358208955224,892.8571428571429
20245395,Erpe-Mere,9420,169000,House,3,186,Achterstraat,15,50.9164448,3.9590784,0,0,0,0,202,Installed,3,To renovate,0,F,398.0,908.6021505376344,424.62311557788945
20244899,Rochefort,5580,192500,House,3,173,Rue Des Falizes,13,50.1565754,5.2206429,0,0,0,0,53,Semi equipped,2,To be done up,0,D,120.0,1112.7167630057804,1604.1666666666667
20244567,Zottegem,9620,249000,Mixed use building,4,212,Laurens De Metsstraat,32,50.87174479999999,3.8115238,0,0,1,0,0,null,0,To renovate,0,F,310.0,1174.5283018867924,803.2258064516129
20246804,Geraardsbergen,9500,275000,House,3,138,Karmelietengracht,1,50.7751081,3.874914999999999,0,0,1,17,0,Installed,0,Good,0,A,,1992.7536231884058,
20245426,Linkebeek,1630,375000,Villa,4,315,Bloemhof,27,50.77201540000001,4.3414136,0,0,1,40,365,Installed,4,To be done up,0,F,430.0,1190.4761904761904,872.0930232558139
20246757,Burdinne,4210,395000,House,2,157,Rue Lambert Daxhelet,34B,50.5845079,5.1474079,0,0,1,50,70,Installed,3,Good,1,D,156.0,2515.923566878981,2532.051282051282
20246456,Zwevezele,8750,399000,House,3,322,Lichterveldestraat,6,51.0363074,3.2093655,0,0,1,40,0,Installed,0,Just renovated,0,D,472.0,1239.1304347826087,845.3389830508474
20245846,Putte,2580,429000,House,3,272,Zoetewei,4,51.0674005,4.624132599999999,0,0,1,0,0,Semi equipped,4,Good,0,F,790.0,1577.2058823529412,543.0379746835443
20245729,Ellezelles,7890,448500,Villa,4,145,Rue Beaufaux,35,50.746829,3.6623032,0,0,1,0,0,Installed,4,Good,0,C,1750.0,3093.103448275862,256.2857142857143
20246597,Brasschaat,2930,449000,House,3,152,Claesstraat,33,51.320879,4.52105,0,0,1,0,0,Installed,2,Good,0,A,,2953.9473684210525,
20246513,Koksijde,8670,610000,Villa,4,354,Capucijnenlaan,6,51.1063143,2.6541554,0,0,1,0,448,null,4,As new,0,B,600.0,1723.1638418079096,1016.6666666666666
20242571,Deurne,2100,299000,House,2,122,Tirinusstraat,54,51.2252873,4.4724794,0,0,0,0,30,Installed,2,To be done up,0,D,165.0,2450.8196721311474,1812.121212121212
20252047,Middelkerke,8433,175000,House,4,158,Diksmuidestraat,39,51.1259349,2.8773001,0,0,0,0,92,null,3,To renovate,0,F,389.0,1107.5949367088608,449.87146529562983
20251002,Geraardsbergen,9500,175000,House,2,84,Edingseweg,287,50.7527592,3.9165526,0,0,0,0,0,Semi equipped,2,To be done up,0,F,144.0,2083.3333333333335,1215.2777777777778
20250998,Geraardsbergen,9500,175000,Mixed use building,2,84,Edingseweg,287,50.7527592,3.9165526,0,0,0,0,0,Semi equipped,2,To be done up,0,F,144.0,2083.3333333333335,1215.2777777777778
20251000,Geraardsbergen,9500,185000,House,2,85,Edingseweg,289,50.7527325,3.9165651,0,0,0,0,0,Semi equipped,2,Good,0,D,161.0,2176.470588235294,1149.0683229813665
20250994,Geraardsbergen,9500,185000,Mixed use building,2,85,Edingseweg,289,50.7527325,3.9165651,0,0,0,0,0,Semi equipped,2,Good,0,D,161.0,2176.470588235294,1149.0683229813665
20247422,Stabroek,2940,225000,House,2,100,Grote Molenweg,91,51.3317637,4.3776591,0,0,0,0,342,Installed,0,To be done up,0,E,342.0,2250.0,657.8947368421053
20252014,Izegem,8870,229000,House,3,161,Roeselaarsestraat,378,50.9227992,3.1964878,0,0,1,10,100,Semi equipped,2,Good,0,D,202.0,1422.3602484472049,1133.6633663366338
20250999,Geraardsbergen,9500,235000,Mixed use building,3,150,Groteweg,432,50.7557164,3.8487508,1,0,1,15,0,Installed,3,Good,0,D,,1566.6666666666667,
20250984,Geraardsbergen,9500,235000,House,3,150,Groteweg,432,50.7557164,3.8487508,1,0,1,15,0,Installed,3,Good,0,D,,1566.6666666666667,
20245906,Zwalm,9630,260000,House,3,128,Machelgemstraat,7,50.8606276,3.7597507,0,0,0,0,0,Installed,0,To renovate,0,F,632.0,2031.25,411.39240506329116
20250845,Oudenaarde,9700,329000,House,4,149,Wortegemstraat,68,50.8532431,3.5894008,0,0,1,0,0,Semi equipped,4,To renovate,0,F,868.0,2208.0536912751677,379.03225806451616
20247386,Kortrijk,8500,337500,Mansion,4,224,Prinses Marie-Joséplein,2,50.8286185,3.2814749,0,0,1,30,0,null,0,To renovate,0,F,,1506.6964285714287,
20251635,Denderleeuw,9470,345000,Town house,2,160,Papestraat,14,50.8944886,4.0724544,0,0,1,0,32,Hyper equipped,2,Good,0,A,97.0,2156.25,3556.701030927835
20251427,Plombières,4852,389000,Villa,4,298,Rue De Rémersdael,82 a,50.7219268,5.9116969,0,0,1,20,510,Installed,4,Good,0,C,1014.0,1305.3691275167785,383.62919132149904
20251928,Herstal,4040,394500,House,4,404,Rue Pierre Michaux,40,50.6942081,5.6485698,0,0,1,0,170,Not installed,3,To be done up,0,D,387.0,976.4851485148515,1019.3798449612403
20251434,Neigem,9403,424000,House,5,223,Halsesteenweg,369,50.8030633,4.0590035,0,0,1,15,75,Installed,2,Good,0,B,183.0,1901.3452914798206,2316.9398907103823
20249564,Gent,9000,625000,Apartment block,4,150,Kartuizerlaan,3,51.0623467,3.7249129,0,0,0,0,0,Installed,2,To be done up,0,C,44.0,4166.666666666667,14204.545454545454
20235237,Borgerhout,2140,325000,House,4,196,Laar,31,51.2167948,4.4346511,0,0,1,8,8,Installed,2,Good,0,F,66.0,1658.1632653061224,4924.242424242424
20247162,Kortrijk,8500,164500,House,3,120,Oudenaardsesteenweg,357,50.82002749999999,3.2938967,0,0,1,20,40,Installed,2,Good,0,null,94.0,1370.8333333333333,1750.0
20246263,Grivegnée,4030,169900,House,2,79,Rue Des Artisans,8,50.6173326,5.606933499999999,0,0,0,0,0,Installed,2,Good,0,E,36.0,2150.6329113924053,4719.444444444444
20245941,Lievegem,9930,249000,House,4,145,Rijvers,12,51.1194662,3.5529164,0,0,1,0,200,Not installed,3,To renovate,0,F,313.0,1717.2413793103449,795.5271565495208
20245946,Hamme,9220,319000,House,2,228,Bookmolenstraat,3,51.0739571,4.0920706,0,0,1,0,120,null,4,Good,0,C,452.0,1399.122807017544,705.7522123893805
20245880,Berchem,2600,325000,House,3,212,Pervijzestraat,14,51.1936526,4.4421046,0,0,0,0,0,Not installed,2,To renovate,0,F,185.0,1533.0188679245282,1756.7567567567567
20244904,Sint-Katelijne-Waver,2860,399000,House,5,170,Rozestraat,11,51.0650553,4.527365899999999,0,0,1,0,0,Semi equipped,0,To be done up,0,D,692.0,2347.0588235294117,576.5895953757225
20245889,Schelle,2627,499000,House,4,186,Pottelberg,4,51.12183690000001,4.333085000000001,0,0,0,0,108,null,3,As new,0,A,253.0,2682.7956989247314,1972.3320158102767
20245387,Puurs-Sint-Amands,2870,889000,House,5,557,Pullaar,227,51.0635197,4.3272004,0,0,1,19,185,null,4,As new,0,B,812.0,1596.0502692998205,1094.8275862068965
20241977,Kortrijk,8500,292500,House,3,150,Brugsesteenweg,211,50.8410994,3.2647507,0,0,1,0,0,Installed,2,Good,0,B,120.0,1950.0,2437.5
20241001,Zelzate,9060,369000,House,3,149,Verbindingsstraat,32,51.1969935,3.8200634,0,0,1,46,24,Installed,0,Good,0,B,169.0,2476.510067114094,2183.431952662722
20241825,Braine-L'Alleud,1420,415000,House,5,201,Rue Du Ménil,11,50.6864038,4.3792992,0,0,1,30,143,Installed,2,Just renovated,0,D,143.0,2064.676616915423,2902.097902097902
20242285,Visé,4600,440000,Town house,5,232,Rue De Sluse,18,50.7407631,5.695585899999999,0,0,1,0,100,Installed,2,Good,0,D,227.0,1896.551724137931,1938.3259911894272
20243109,Oosterzele,9860,475000,House,3,134,Begijnenweide,51,50.9368275,3.7693315,0,0,1,24,1,null,4,As new,0,B,509.0,3544.776119402985,933.2023575638507
20242640,Lippelo,2890,649000,Villa,5,174,Provincialeweg,36,51.04602939999999,4.255328500000001,0,1,1,75,0,Installed,4,Good,0,A,593.0,3729.885057471264,1094.4350758853288
20236655,Waterloo,1410,975000,House,7,465,Av. Du Prieuré,1,50.7187584,4.3501299,1,0,0,0,477,Usa uninstalled,4,Good,0,C,1960.0,2096.7741935483873,497.44897959183675
20231046,Wavre,1300,225000,House,2,110,Place De La Loriette,2,50.7176301,4.603354299999999,0,0,1,8,0,null,3,To renovate,0,E,82.0,2045.4545454545455,2743.9024390243903
20240496,Waregem,8790,299000,House,4,354,Remi Vanmeerhaeghestraat,68,50.8640473,3.401782,1,0,0,0,0,Installed,3,Good,0,D,219.0,844.632768361582,1365.296803652968
20239177,Elzele,7890,349000,House,3,138,Ninoofsesteenweg,15,50.75389389999999,3.6625299,0,0,1,25,2000,Installed,4,To be done up,0,G,3090.0,2528.985507246377,112.94498381877023
20235273,Leuven,3001,399000,House,2,114,Hertogstraat,60,50.861751,4.6942365,0,0,1,25,50,Installed,2,As new,0,B,,3500.0,
20236913,Gent,9000,775000,House,5,210,De Pintelaan,62,51.0293352,3.7266638,0,0,1,0,85,Hyper equipped,3,As new,0,B,350.0,3690.4761904761904,2214.285714285714
20237928,Boechout,2530,799000,Villa,3,262,Vremdesesteenweg,202,51.1693977,4.5117063,0,1,1,1,480,Hyper equipped,4,As new,0,B,835.0,3049.618320610687,956.8862275449102
20246669,Woluwe-Saint-Lambert,1200,995000,House,5,298,Rue Albert Et Marie-Louise Servais-Kinet,32-36,50.8452145,4.4149236,0,0,1,7,45,Hyper equipped,2,As new,0,A,117.0,3338.9261744966443,8504.273504273504
20249611,Bornem,2880,279000,House,4,233,Klein-Mechelen,28,51.08794289999999,4.2701631,0,0,1,0,0,Installed,3,To renovate,0,F,477.0,1197.4248927038627,584.9056603773585
20251369,Gent,9031,279000,House,3,150,Baarledorpstraat,37,51.0367749,3.617409299999999,0,0,0,0,122,null,2,Good,0,E,221.0,1860.0,1262.4434389140272
20247858,Brakel,9660,293000,House,2,184,Valkenstraat,76,50.8164624,3.7641885,0,0,0,0,0,Installed,0,Good,0,D,375.0,1592.391304347826,781.3333333333334
20250555,Lokeren,9160,360000,House,2,161,Naastveldstraat,111,51.0908528,3.9828732,0,0,1,0,0,null,3,As new,0,B,164.0,2236.0248447204967,2195.121951219512
20246394,Ougrée,4102,369000,Villa,4,242,Rue Louis De Brouckère,80,50.57814080000001,5.5458744,1,0,1,50,400,Semi equipped,4,To be done up,0,D,712.0,1524.793388429752,518.2584269662922
20250552,Lokeren,9160,389000,House,3,178,Sterrestraat,251,51.0933204,3.9861408,0,0,1,0,0,null,3,As new,0,C,252.0,2185.3932584269664,1543.6507936507937
20250962,Sint-Denijs-Westrem,9051,399000,House,3,145,Kortrijksesteenweg,1150,51.0184079,3.6718141,0,0,1,10,0,null,2,Good,0,B,,2751.7241379310344,
20249577,Cornesse,4860,419000,Villa,4,258,Rue Thibaumont,5,50.5721759,5.7888853,1,0,1,0,200,Installed,4,Good,0,B,2691.0,1624.031007751938,155.70419918246006
20249714,Zele,9240,425000,House,5,458,Gentsesteenweg,34,51.0626647,4.0231218,0,0,0,0,0,Installed,3,Good,0,D,923.0,927.9475982532751,460.4550379198267
20251250,Roosdaal,1760,449000,House,2,177,Hoogstraat,1B,50.84556449999999,4.0863197,0,0,1,0,0,Hyper equipped,4,Good,0,C,630.0,2536.723163841808,712.6984126984127
20250229,Libramont-Chevigny,6800,479000,House,5,270,Pironpré,46,49.9538337,5.4233166,1,1,1,17,0,null,4,Good,0,D,906.0,1774.0740740740741,528.6975717439294
20251008,Oosterzele,9860,950000,Mixed use building,5,982,Geraardsbergse Steenweg,145,50.9448288,3.8185995,1,0,0,0,0,Semi equipped,0,Good,0,D,,967.4134419551934,
20251001,Oosterzele,9860,950000,House,5,982,Geraardsbergse Steenweg,145,50.9448288,3.8185995,1,0,0,0,0,Semi equipped,0,Good,0,D,,967.4134419551934,
20251189,Knokke-Heist,8300,2295000,House,3,233,Graaf Jansdijk,221,51.3389415,3.3094038,0,0,1,0,808,Installed,4,To be done up,0,D,808.0,9849.785407725321,2840.3465346534654
20243789,Torhout,8820,487000,House,4,229,Kreeftenstraat,7,51.0918727,3.0759448,0,0,1,20,391,null,4,As new,0,B,695.0,2126.637554585153,700.7194244604317
20243202,Sint-Martens-Latem,9830,865000,House,3,171,Hoge Heirweg,43,51.0134774,3.638116,0,0,1,26,1010,Installed,4,To be done up,0,F,1163.0,5058.479532163743,743.7661220980224
20234460,Kortrijk,8500,199000,House,4,145,Passionistenlaan,71,50.829552,3.284103,0,0,1,0,0,Semi equipped,2,To renovate,0,F,200.0,1372.4137931034484,995.0
20235250,Moerbeke,9180,345000,House,4,165,Heidewegel,59,51.1770491,3.9336427,0,0,1,60,100,Semi equipped,3,Good,0,D,311.0,2090.909090909091,1109.3247588424438
20235479,Kortenberg,3078,370000,House,5,267,Kwikstraat,18,50.8781332,4.5755118,0,0,1,0,760,Semi equipped,3,To renovate,0,F,1000.0,1385.7677902621722,370.0
20234857,Enines,1350,465000,House,4,170,Rue Bois Des Fosses,58A,50.6957921,4.9290425,0,0,1,0,0,Installed,3,As new,0,B,1663.0,2735.294117647059,279.6151533373422
20246803,Geraardsbergen,9500,149900,House,2,85,Kleine Nieuwstraat,1,50.7726712,3.882106499999999,0,0,1,6,0,Installed,2,Good,0,C,,1763.5294117647059,
20244573,Hélécine,1357,249000,House,2,104,Rue Sainte Anne,61,50.76453249999999,4.9828252,0,0,1,11,813,Installed,4,To renovate,0,G,955.0,2394.230769230769,260.73298429319374
20244572,Jodoigne,1370,249000,House,2,104,Rue Sainte Anne,61,50.720881,4.8693654,0,0,1,11,813,Installed,4,To renovate,0,G,955.0,2394.230769230769,260.73298429319374
20226641,Bonheiden,2820,379000,House,3,139,Mechelsesteenweg,224,51.0259142,4.5372445,0,0,1,14,145,Installed,3,Good,0,B,315.0,2726.6187050359713,1203.1746031746031
20242611,Anseroeul,7750,148500,House,2,183,Place D'Anseroeul,33,50.7281298,3.5192768,0,0,1,50,452,Semi equipped,2,To renovate,0,F,650.0,811.4754098360655,228.46153846153845
20241534,Geraardsbergen,9500,267000,House,4,156,Stoffelstraat,17,50.7518314,3.9228197,0,0,1,0,0,null,0,To renovate,0,D,1913.0,1711.5384615384614,139.57135389440668
20240908,Aalst,9300,309000,House,4,160,Brouwerijstraat,71,50.9490351,4.042498,0,0,1,35,35,Installed,2,To be done up,0,D,100.0,1931.25,3090.0
20243130,Buizingen,1501,395000,House,2,115,Grensweg,62,50.74181309999999,4.2699066,0,0,1,25,50,Semi equipped,3,Good,0,F,387.0,3434.782608695652,1020.671834625323
20241514,Edegem,2650,525000,House,4,262,Pieter Van Den Bemdenlaan,48,51.1585854,4.419156399999999,0,0,1,0,170,Installed,3,Good,0,D,400.0,2003.8167938931297,1312.5
20232268,Sint-Kwintens-Lennik,1750,349000,House,3,176,Alfred Algoetstraat,60,50.8065544,4.159246899999999,0,0,1,0,0,Installed,2,To be done up,0,F,431.0,1982.9545454545455,809.7447795823666
20244251,Lierneux,4990,395000,House,4,180,Baneux,5,50.2867681,5.7594522,1,0,1,10,1200,Installed,4,Just renovated,0,E,1409.0,2194.4444444444443,280.3406671398155
20239717,Ronse,9600,139000,House,3,110,Langehaag,20,50.7506923,3.5945487,0,0,0,0,20,Installed,2,Good,0,C,95.0,1263.6363636363637,1463.157894736842
20237966,Oostakker,9041,330000,House,3,222,Wittewalle,16,51.1084934,3.7891969,0,0,0,0,0,null,2,To renovate,0,E,306.0,1486.4864864864865,1078.4313725490197
20236249,Gavere,9890,459000,House,3,430,Onderstraat,39,50.9304044,3.6601089,0,0,1,50,179,Hyper equipped,2,To be done up,0,C,309.0,1067.4418604651162,1485.4368932038835
20236569,Destelbergen,9070,574000,House,4,170,Goudenhandwegel,10,51.0648851,3.8305536,0,0,1,0,0,Installed,4,Good,0,C,767.0,3376.470588235294,748.3702737940026
20246412,Woluwe-Saint-Lambert,1200,995000,House,4,221,Rue Albert Et Marie-Louise Servais-Kinet,34,50.8452145,4.4149236,0,0,1,7,45,Hyper equipped,2,As new,0,A,117.0,4502.262443438914,8504.273504273504
20250526,Kluisbergen,9690,149000,House,3,135,Stationsstraat,35,50.7893036,3.5104724,0,0,0,0,0,null,3,Good,0,F,386.0,1103.7037037037037,386.0103626943005
20246393,Sijsele,8340,260000,House,3,157,Stationsstraat,31,51.2034432,3.3206217,0,0,1,30,0,null,2,To renovate,0,F,351.0,1656.0509554140128,740.7407407407408
20247838,Terhagen,2840,325000,House,4,150,Oude Brouwerijstraat,28,51.078466,4.398855699999999,0,0,1,23,19,null,0,As new,0,C,90.0,2166.6666666666665,3611.1111111111113
20247922,Eeklo,9900,340000,House,4,201,Raverschootstraat,262,51.1882874,3.5401575,0,0,0,0,0,Installed,0,To renovate,0,F,1370.0,1691.5422885572139,248.17518248175182
20251361,Putte (Beerzel),2580,495000,House,4,302,Jan De Cordesstraat,11,51.0584243,4.667841699999999,1,0,1,0,0,Semi equipped,4,To be done up,0,E,1145.0,1639.0728476821191,432.31441048034935
20249748,Ninove,9400,699000,Villa,3,525,Linkebeek,72,50.7931076,4.0295538,0,0,1,0,0,Installed,4,As new,0,C,1694.0,1331.4285714285713,412.63282172373084
20242755,Zandvliet,2040,379000,House,2,146,Berendrechts Voetpad,10.1,51.34287,4.31409,0,0,0,0,495,Installed,0,Good,0,D,495.0,2595.890410958904,765.6565656565657
20243517,Aalst,9320,779000,Villa,4,217,Hekelgemstraat,123,50.9221627,4.0867862,0,0,1,0,3000,Hyper equipped,4,Good,0,C,3270.0,3589.861751152074,238.2262996941896
20234452,Herent,3020,295000,House,3,116,Bijlokstraat,64,50.9124621,4.6861423,0,0,1,0,62,Installed,2,To be done up,0,E,193.0,2543.103448275862,1528.4974093264248
20245628,Lessines,7860,175000,House,3,146,Rue François Watterman,54,50.71158089999999,3.8267713,0,0,1,0,0,null,2,To be done up,0,E,160.0,1198.6301369863013,1093.75
20245576,Ardooie,8850,205000,House,3,128,Roeselaarsestraat,131,50.96071490000001,3.1711459,0,0,0,0,820,null,4,To renovate,0,F,1345.0,1601.5625,152.4163568773234
20246202,Gent,9050,215000,House,3,83,Rijkeklarenstraat,10,51.045116,3.7477586,0,0,0,0,0,Semi equipped,2,To be done up,0,C,42.0,2590.3614457831327,5119.047619047619
20247160,Kortrijk,8500,234000,House,4,160,Guldensporenlaan,18,50.8289991,3.2797593,0,0,1,0,0,null,2,To renovate,0,null,190.0,1462.5,1231.578947368421
20246029,Herstal,4040,330000,House,3,166,Rue Petite Foxhalle,118,50.6626176,5.6191109,0,0,1,23,58,Installed,3,Good,0,B,154.0,1987.9518072289156,2142.8571428571427
20246242,Aalst Baardegem,9310,385000,House,4,152,Opwijkstraat,7,50.958121,4.1452595,0,0,1,0,0,Hyper equipped,4,Good,0,C,525.0,2532.8947368421054,733.3333333333334
20246697,Sint-Agatha-Berchem,1082,399000,House,3,165,Kasterlindenstraat,75,50.8573662,4.2930274,0,0,1,1606,0,Installed,2,To be done up,0,G,140.0,2418.181818181818,2850.0
20245593,Lochristi,9080,469000,House,3,150,Slagmanstraat,18,51.11043489999999,3.8684949,0,0,1,0,0,null,3,As new,0,B,853.0,3126.6666666666665,549.8241500586166
20240188,Zottegem,9620,249000,House,4,212,Laurens De Metsstraat,32,50.87174479999999,3.8115238,0,0,1,0,0,null,0,To renovate,0,F,310.0,1174.5283018867924,803.2258064516129
20241989,Wetteren,9230,295000,House,3,146,Brusselsesteenweg,389,50.9765746,3.8612462,0,0,1,0,170,Hyper equipped,3,Good,0,D,281.0,2020.5479452054794,1049.8220640569396
20241273,Fleurus,6220,315000,House,2,100,Rue De Wangenies,79,50.45832550000001,4.5254409,0,0,1,14,1030,Semi equipped,4,To be done up,0,E,1035.0,3150.0,304.3478260869565
20239890,Stabroek,2940,424000,House,4,186,De Croone,2,51.3494872,4.3938068,0,0,1,0,792,Installed,0,Good,0,D,792.0,2279.569892473118,535.3535353535353
20240525,Berchem,2600,425000,House,3,138,Generaal Drubbelstraat,94,51.1984884,4.4261523,0,0,1,11,0,Installed,0,Just renovated,0,B,65.0,3079.710144927536,6538.461538461538
20239267,Gullegem,8560,310000,House,3,190,Maddensreke,6,50.839057,3.207031,0,0,1,0,316,Installed,3,Good,0,B,528.0,1631.578947368421,587.1212121212121
20237417,Hoboken,2660,334000,House,4,205,Jozef Stormsstraat,61,51.18439559999999,4.3560814,0,0,0,0,70,Usa hyper equipped,2,Just renovated,0,B,,1629.2682926829268,
20236926,Beersel,1650,348000,House,3,130,Henry Torleylaan,42,50.7466839,4.2754344,0,0,1,10,35,Semi equipped,3,To be done up,0,E,185.0,2676.923076923077,1881.081081081081
20236657,Schaerbeek,1030,549000,House,8,350,Rue Dupont,93,50.8586283,4.3673321,0,0,0,0,30,null,3,To be done up,0,G,30.0,1568.5714285714287,18300.0
20236928,Sint-Agatha-Berchem,1082,730000,Mansion,5,238,Avenue Gisseleire Versé,22,50.86123329999999,4.3009169,0,0,1,0,330,Installed,3,Good,0,E,535.0,3067.2268907563025,1364.4859813084113
20250499,Kortemark,8610,259000,House,4,159,Kronevoordestraat,51,51.0213098,3.0040052,0,0,1,0,0,null,2,As new,0,A,94.0,1628.9308176100628,2755.31914893617
20248785,Lede,9340,269000,House,3,123,Wichelse Steenweg,56,50.9714952,3.9751315,1,0,1,40,820,null,3,Just renovated,0,D,1020.0,2186.991869918699,263.72549019607845
20250227,Zwevegem,8550,299000,House,3,159,Monseigneur Callewaertlaan,22,50.81496749999999,3.3293681,0,0,1,20,500,Semi equipped,0,To renovate,0,D,793.0,1880.5031446540881,377.04918032786884
20250932,Merelbeke,9820,325000,House,3,121,Sint-Jozefstraat,32,51.0168713,3.762267,0,0,1,16,0,Installed,2,As new,0,B,60.0,2685.9504132231405,5416.666666666667
20245378,Maaseik,3680,329000,House,5,192,Weertersteenweg,169,51.1098034,5.7755319,0,0,0,0,0,Hyper equipped,0,Just renovated,0,D,1612.0,1713.5416666666667,204.09429280397023
20247736,Herdersem,9310,330000,House,3,162,Aartsrtaat,42,50.97708249999999,4.0670528,0,0,1,0,0,null,0,Good,0,D,228.0,2037.037037037037,1447.3684210526317
20251364,Eeklo,9900,349000,Mixed use building,5,276,Markt,61,51.1844288,3.565262,0,0,1,28,0,Installed,2,Good,0,B,94.0,1264.4927536231885,3712.7659574468084
20247963,Roosdaal,1760,575000,House,3,203,Ninoofsesteenweg,200,50.831944,4.097392699999999,0,0,1,47,0,Hyper equipped,3,As new,0,C,13925.0,2832.512315270936,41.292639138240574
20247260,Sint-Pieters-Woluwe,1150,749000,House,3,198,Henri Vandermaelenstraat,75,50.8428963,4.4613067,0,0,1,40,0,Hyper equipped,2,To be done up,0,F,109.0,3782.8282828282827,6871.559633027523
20250134,Woluwe-Saint-Pierre,1150,995000,Apartment block,5,290,Avenue Jules De Trooz,22,50.83602610000001,4.4288861,0,0,1,9,20,Installed,2,Good,0,D,315.0,3431.0344827586205,3158.7301587301586
20243458,Puurs-Sint-Amands,2870,325000,House,3,198,Hellegatstraat,26,51.0905267,4.329562,0,0,0,0,50,null,2,To be done up,0,D,215.0,1641.4141414141413,1511.6279069767443
20242756,Berendrecht,2040,450000,House,3,162,Abtenstraat,12,51.3457304,4.33407,0,0,0,0,508,Installed,0,Good,0,C,,2777.777777777778,
20242516,Anderlecht,1070,545000,House,3,140,Clos Des Pleurotes Oesterzwammen Hoek,6,50.8171989,4.2587137,0,0,1,21,85,Hyper equipped,2,As new,0,A+,155.0,3892.8571428571427,3516.1290322580644
20234764,Flémalle,4400,285000,House,3,135,Rue Du Village,71,50.59986199999999,5.465174699999999,0,0,1,10,50,Semi equipped,2,As new,1,C,145.0,2111.1111111111113,1965.5172413793102
20233484,Kontich,2550,319000,House,5,172,Ooststatiestraat,35,51.1340938,4.449231800000001,0,0,1,14,100,Installed,2,To be done up,0,D,212.0,1854.6511627906978,1504.7169811320755
20235030,Kraainem,1950,595000,Mixed use building,4,350,Rue Alphonse Lenaerts,36,50.8588456,4.474119,0,0,1,0,1400,Semi equipped,4,Good,0,F,1724.0,1700.0,345.1276102088167
20245736,Wichelen,9260,179000,House,2,85,Spoorwegstraat,5,51.00336840000001,3.9237257,0,0,1,0,0,Installed,2,Good,0,C,43.0,2105.8823529411766,4162.790697674419
20244858,Hastière,5544,215000,Country cottage,3,90,Rue De La Résistance,13,50.16849389999999,4.818896899999999,1,0,1,18,1300,null,0,Good,0,G,1300.0,2388.8888888888887,165.3846153846154
20244924,Niel,2845,239000,House,3,175,Antwerpsestraat,125,51.1101597,4.3316374,0,0,1,0,0,null,2,To renovate,0,E,245.0,1365.7142857142858,975.5102040816327
20247036,Blankenberge,8370,239000,House,3,145,Groenestraat,3,51.31424519999999,3.1378467,0,0,0,0,64,null,3,Good,0,F,210.0,1648.2758620689656,1138.095238095238
20246065,Bevere,9700,320000,House,3,142,Wortegemstraat,52,50.8529332,3.5905836,0,0,0,0,0,Semi equipped,0,Good,0,B,160.0,2253.521126760563,2000.0
20247000,Sint-Pieters-Leeuw,1600,420000,Villa,2,150,August Detréstraat,29,50.7857137,4.2806141,0,0,1,0,0,Semi equipped,4,To be done up,0,E,521.0,2800.0,806.1420345489444
20246995,Merelbeke,9820,449000,Villa,3,140,Motsenstraat,88,50.9794858,3.7487067,0,0,1,18,779,Installed,4,Good,0,F,934.0,3207.1428571428573,480.72805139186295
20242026,Magnée,4623,490000,House,3,236,Rue Du Centenaire,25,50.6201821,5.6191415,1,0,1,0,695,Installed,3,Good,0,E,1080.0,2076.271186440678,453.7037037037037
20245339,Koksijde,8670,525000,Villa,4,185,Lalouxlaan,47,51.1168174,2.6319761,0,0,1,41,0,Installed,3,null,0,D,194.0,2837.837837837838,2706.185567010309
20246702,Roosdaal,1760,640000,Villa,5,320,Kleemstraat,52,50.8397581,4.1248965,0,0,1,50,5000,Installed,4,As new,0,D,5530.0,2000.0,115.73236889692586
20245188,Kraainem,1950,1100000,House,5,220,Avenue Des Faisans,36,50.8315772,4.4774743,0,0,1,40,400,Installed,4,To renovate,0,F,995.0,5000.0,1105.5276381909548
20246500,Gent,9000,1295000,House,4,231,Coupure Links,659,51.0541415,3.7087511,0,0,1,0,0,Installed,2,null,0,A,151.0,5606.060606060606,8576.15894039735
20246499,Gent,9000,1295000,Mansion,4,231,Coupure Links,659,51.0541415,3.7087511,0,0,1,0,0,Installed,2,null,0,A,151.0,5606.060606060606,8576.15894039735
20238498,Antwerpen,2018,189000,Mixed use building,1,45,Lange Altaarstraat,30,51.2066937,4.4323577,0,0,0,0,0,Semi equipped,3,Good,0,D,72.0,4200.0,2625.0
20237976,Wilrijk,2610,199000,Mixed use building,2,88,Julius De Geyterstraat,118,51.1838711,4.3788193,0,0,0,0,0,Installed,2,Just renovated,0,D,,2261.3636363636365,
20242227,La Bruyère,5080,385000,House,3,145,Rue Des Crolaux,8,50.5131802,4.8432244,0,0,1,20,1400,Hyper equipped,4,Good,0,F,1666.0,2655.1724137931033,231.0924369747899
20243095,Sint-Pieters-Leeuw,1600,420000,Town house,3,200,Brusselbaan,24,50.8072293,4.2874348,0,0,1,15,200,Hyper equipped,3,Good,0,C,250.0,2100.0,1680.0
20236824,Overijse,3090,535000,Villa,4,213,Groeneweg,47,50.7844538,4.535266099999999,0,0,1,21,1521,Installed,4,To be done up,0,F,2177.0,2511.737089201878,245.751033532384
20241808,Affligem,1790,589000,Villa,4,260,Fosselstraat,19A,50.9186944,4.1136159,0,0,1,19,400,Hyper equipped,4,As new,0,B,684.0,2265.3846153846152,861.1111111111111
20242317,Auderghem,1160,625000,House,3,176,Rue Georges Huygens,56,50.81035379999999,4.4408784,0,0,1,34,155,Hyper equipped,2,As new,0,E,220.0,3551.1363636363635,2840.909090909091
20240743,Beerse,2340,675000,House,5,336,Berenlaan,2,51.3066469,4.8570809,0,0,1,0,1200,Installed,4,As new,0,C,1500.0,2008.9285714285713,450.0
20240646,Woluwe-Saint-Lambert,1200,790000,House,10,362,Avenue De Juillet,44,50.8479209,4.4149608,0,0,1,5,50,Hyper equipped,2,To renovate,0,G,250.0,2182.3204419889503,3160.0
20232483,Schuiferskapelle,8700,135000,House,4,115,Biermanstraat,38,51.0338995,3.3379824,0,0,1,12,180,null,3,To renovate,0,F,332.0,1173.9130434782608,406.6265060240964
20231381,Lede,9340,356000,House,3,185,Bellaertstraat,70,50.9616,3.9828385,0,0,1,30,330,Usa hyper equipped,2,Just renovated,0,C,450.0,1924.3243243243244,791.1111111111111
20222713,Schilde,2970,640000,House,3,241,De Rest,31,51.2486118,4.5895774,0,0,1,0,0,Installed,4,Good,0,C,750.0,2655.6016597510375,853.3333333333334
20226959,Uccle,1180,1950000,House,5,310,Avenue Montjoie - Montjoielaan,104,50.8091292,4.3597163,1,0,1,20,200,Usa hyper equipped,3,As new,0,C,360.0,6290.322580645161,5416.666666666667
20235929,Kluisbergen,9690,259000,House,4,172,Molenstraat,35,50.789466,3.5078823,0,0,1,0,0,null,0,Good,0,C,510.0,1505.8139534883721,507.84313725490193
20238127,Brugge,8310,525000,House,3,205,Nicolaus Muleriusstraat,14,51.1908042,3.266035,0,0,1,0,100,Hyper equipped,2,As new,0,A,254.0,2560.9756097560976,2066.9291338582675
20250575,Bon-Secours,7603,135000,House,4,250,Avenue De La Basilique,17,50.4978661,3.606068799999999,0,0,1,0,0,Semi equipped,2,To be done up,0,C,182.0,540.0,741.7582417582418
20252006,Aalst,9300,239000,House,3,140,Dokter André Goffaertsstraat,127,50.9316093,4.0413976,0,0,1,8,0,Installed,2,To renovate,0,D,75.0,1707.142857142857,3186.6666666666665
20250585,Bertrix,6880,399000,House,6,254,Rue Des Ardoisières,28,49.8430902,5.2700789,0,0,1,0,0,Installed,4,Good,0,D,1148.0,1570.8661417322835,347.5609756097561
20249989,Ninove,9400,399500,House,4,248,Denderhoutembaan,88,50.8440099,4.020881,1,0,1,0,0,Installed,2,Good,0,D,0.0,1610.8870967741937,inf
20251568,Lede,9340,399850,House,5,354,Hoogstraat,100,50.959532,3.9766242,0,0,0,0,0,null,4,Good,0,D,651.0,1129.5197740112994,614.2089093701996
20250884,Vaux-Sur-Sûre Juseret,6640,419000,House,2,143,Rue De La Diligence,1,49.8797422,5.549258699999999,0,0,1,0,0,Installed,4,As new,0,D,967.0,2930.0699300699303,433.29886246122027
20251353,Sint-Andries,8200,425000,House,3,147,Riethuisstraat,17,51.1976573,3.2001136,0,0,1,0,0,null,2,Good,0,B,137.0,2891.156462585034,3102.189781021898
20249791,Wavre,1300,499000,House,4,189,Avenue Des Fougères,5,50.7010119,4.6127239,0,1,1,50,0,Hyper equipped,4,Good,0,B,1297.0,2640.2116402116403,384.73400154202005
20250551,Lokeren,9160,499000,Villa,3,162,Zelestraat,200,51.09821059999999,4.0057877,0,0,1,0,0,null,4,As new,0,B,420.0,3080.246913580247,1188.095238095238
20246455,Gent,9000,619000,Apartment block,4,247,Sint-Pietersaalststraat,79,51.0303735,3.7159768,0,0,0,0,0,Installed,0,To be done up,0,D,140.0,2506.072874493927,4421.428571428572
20249851,Woluwe-Saint-Pierre,1150,650000,House,3,155,Rue Edouard Gersis,39,50.8404372,4.4590265,0,0,1,0,0,Hyper equipped,2,As new,0,D,77.0,4193.548387096775,8441.558441558442
20250657,Modave,4577,695000,House,4,313,Route De Limet,33,50.4568536,5.2971606,0,0,1,60,3000,Installed,4,Good,0,B,4323.0,2220.447284345048,160.7679851954661
20250696,Saint-Gilles,1060,795000,House,4,376,Rue De Parme - Parmastraat,16,50.8298601,4.350549099999999,0,0,0,0,50,Installed,2,To be done up,0,G,165.0,2114.3617021276596,4818.181818181818
20246961,Herent,3020,798000,House,4,210,Maleizenstraat,59,50.8901846,4.6605979,0,0,1,12,0,null,4,As new,0,B,882.0,3800.0,904.7619047619048
20250900,Oud-Turnhout,2360,1197500,Villa,5,483,Bosdreef,9,51.3022521,5.0098541,0,0,1,0,0,null,4,As new,0,B,2069.0,2479.296066252588,578.7820202996617
20251573,Aalst,9300,1350000,Mansion,5,992,Keizersplein,47-49,50.9359945,4.037028800000001,0,0,0,0,0,Installed,2,Good,0,null,590.0,1360.8870967741937,2288.135593220339
20251569,Aalst,9300,1350000,House,5,992,Keizersplein,47-49,50.9359945,4.037028800000001,0,0,0,0,0,Installed,2,Good,0,null,590.0,1360.8870967741937,2288.135593220339
20251801,Zandhoven,2240,1750000,Villa,5,345,Dennendreef,4,51.1940229,4.6831111,1,0,1,30,0,Hyper equipped,4,As new,0,B,,5072.463768115942,
20247265,Deurle,9831,2380000,Villa,6,558,Nevelse Warande,29,51.0091021,3.6142768,0,1,1,0,0,null,4,As new,0,C,3592.0,4265.232974910395,662.5835189309577
20243548,Tollembeek,1570,285000,House,3,162,Hernestraat,57,50.738777,4.015421799999999,0,0,0,0,0,Installed,0,To be done up,0,D,,1759.2592592592594,
20242753,Stasegem,8530,365000,House,2,181,Klein Katrol,10,50.8337561,3.3099936,0,0,1,35,300,Installed,0,Good,0,C,574.0,2016.5745856353592,635.8885017421603
20243606,Beveren,9130,375000,House,2,166,Binnendijk,3,51.255052,4.1916551,0,0,1,68,200,Installed,4,Just renovated,0,A,374.0,2259.0361445783133,1002.6737967914438
20242743,Mechelen,2800,399000,House,3,240,Zepstraat,67,51.0090538,4.4242832,0,0,0,0,400,Installed,0,To renovate,0,F,848.0,1662.5,470.5188679245283
20242719,Aalst,9300,399000,House,3,180,Opwijkse Steenweg,14,50.9048099,4.0555339,0,0,1,18,0,Installed,0,Good,0,B,527.0,2216.6666666666665,757.1157495256167
20242722,Moorsel,9310,399000,House,3,180,Opwijkse Steenweg,14,50.9478217,4.0983842,0,0,1,18,0,Installed,0,Good,0,B,527.0,2216.6666666666665,757.1157495256167
20243572,Koolskamp,8851,429000,House,4,184,Lichterveldsestraat,16,51.0015528,3.2075859,0,0,1,14,0,null,4,Good,0,E,1056.0,2331.521739130435,406.25
20243376,Zulzeke,9690,555000,Villa,4,550,Zandstraat,12,50.7609269,3.5687011,0,0,1,0,0,Semi equipped,4,To be done up,0,E,7076.0,1009.0909090909091,78.43414358394573
20241683,Mechelen,2800,599000,House,3,169,Driesstraat,6,51.0029017,4.4321891,0,0,1,23,115,Installed,4,Just renovated,0,A,355.0,3544.378698224852,1687.3239436619717
20243425,Waregem,8790,790000,Villa,4,350,Wortegemseweg,94,50.872938,3.4525155,1,0,1,0,0,null,4,To be done up,0,E,2396.0,2257.1428571428573,329.7161936560935
20224191,Mechelen,2800,348000,House,4,153,Caputsteenstraat,148,51.0332659,4.4917284,0,0,1,0,37,Installed,2,Just renovated,0,D,125.0,2274.5098039215686,2784.0
20234550,Jupille-Sur-Meuse,4020,245000,Town house,5,148,Rue Auguste Ponson,31,50.6422428,5.6309277,0,0,1,15,115,Installed,3,To renovate,0,D,304.0,1655.4054054054054,805.921052631579
20232519,Ninove,9400,395000,House,3,175,Edingsesteenweg,16,50.8262189,4.0267475,0,0,1,50,1000,Installed,0,Good,0,F,1257.0,2257.1428571428573,314.24025457438347
20233771,Grez-Doiceau,1390,449000,House,3,157,Avenue Félix Lacourt,191,50.7185584,4.7221676,0,0,1,0,0,Installed,4,Just renovated,0,E,800.0,2859.872611464968,561.25
20235432,Brecht,2960,1099000,Villa,4,452,Grasveld,1,51.2904292,4.579159,1,0,1,0,0,Installed,4,Good,0,C,,2431.4159292035397,
20245374,Liedekerke,1770,225000,House,3,90,Ed. Schelfhoutstraat,72,50.8657148,4.1002182,0,0,1,0,100,Semi equipped,2,To be done up,0,F,167.0,2500.0,1347.3053892215569
20246437,Geraardsbergen,9500,249000,House,3,154,Hoge Buizemont,23,50.76495509999999,3.8871875,0,0,1,20,1060,Hyper equipped,3,To be done up,0,C,1560.0,1616.8831168831168,159.6153846153846
20246486,Affligem,1790,279000,House,3,182,Fosselstraat,89,50.91105599999999,4.111094899999999,0,0,1,22,0,Hyper equipped,2,Just renovated,0,B,125.0,1532.967032967033,2232.0
20246063,Bevere,9700,348000,House,3,229,Wortegemstraat,120,50.8549195,3.5801035,0,0,0,0,0,Semi equipped,0,To renovate,0,E,1009.0,1519.6506550218342,344.89593657086226
20245221,Roeselare,8800,360000,House,3,222,Pastoor Slossestraat,21,50.93093529999999,3.1545051,0,0,1,0,0,Installed,2,Good,0,C,1022.0,1621.6216216216217,352.2504892367906
20245173,Geraardsbergen,9500,365000,House,3,180,Brusselsestraat,7,50.7746665,3.899625699999999,0,0,1,0,0,null,4,To renovate,0,F,879.0,2027.7777777777778,415.24459613196814
20246484,Londerzeel,1840,399000,House,4,157,Blokstraat,10,51.01666669999999,4.2475262,0,0,1,0,0,null,2,Good,0,C,263.0,2541.4012738853503,1517.1102661596958
20245703,Buggenhout,9255,449000,House,3,203,Ravenstraat,78,50.9925209,4.1807852,0,0,1,0,0,Hyper equipped,3,Just renovated,0,B,565.0,2211.822660098522,794.6902654867257
20244610,Gentbrugge,9050,467000,House,3,146,Rode-Kruisstraat,5-9,51.0284723,3.764137499999999,0,0,1,0,100,Hyper equipped,2,As new,0,null,188.0,3198.6301369863013,2484.0425531914893
20244658,Gent Sint-Amandsberg,9040,495000,House,3,167,Kunstenaarstraat,35,51.0515409,3.7467804,0,0,0,0,45,Installed,2,As new,0,B,114.0,2964.0718562874254,4342.105263157895
20246109,Zoersel,2980,835000,House,6,308,Otterdreef,19,51.2536735,4.623406699999999,0,1,1,20,0,Hyper equipped,4,As new,0,B,2616.0,2711.038961038961,319.1896024464832
20245283,Sint-Denijs-Westrem,9051,1245000,Villa,7,1038,Pleispark,15,51.0201764,3.6933976,1,0,1,0,0,null,4,null,0,B,3130.0,1199.421965317919,397.7635782747604
20241396,Deerlijk,8540,149000,House,2,145,Vichtesteenweg,264,50.8447374,3.3830052,0,0,0,0,260,null,3,To be done up,0,D,431.0,1027.5862068965516,345.707656612529
20240193,Oudenaarde,9700,325000,House,3,146,Mgr. Lambrechtstraat,58,50.8774577,3.6549786,0,0,1,0,0,null,0,Good,0,A,180.0,2226.027397260274,1805.5555555555557
20241548,Meulebeke,8760,330000,House,3,174,Oude Gentstraat,53,50.9505202,3.2961076,0,0,1,0,0,Installed,0,Just renovated,0,B,508.0,1896.551724137931,649.6062992125984
20241193,Loppem,8210,429000,House,5,163,Bakkershoflaan,11,51.1512274,3.1943631,0,0,1,0,300,Installed,3,As new,0,C,403.0,2631.9018404907974,1064.516129032258
20240840,Duffel,2570,839000,House,4,285,Kraanstraat,48,51.09274660000001,4.572415599999999,1,0,1,0,0,Installed,0,Good,0,A,6923.0,2943.8596491228072,121.19023544706052
20218732,Mechelen,2800,539000,House,4,153,Akelei,63,51.0208132,4.4737954,1,0,1,13,490,Installed,4,Good,0,C,846.0,3522.875816993464,637.1158392434988
20231746,Uccle,1180,1495000,House,3,210,Rue De L'Equateur,20,50.7950245,4.3624444,0,0,1,0,600,Installed,3,To be done up,0,D,950.0,7119.047619047619,1573.6842105263158
20244093,Evergem,9940,242000,House,3,119,August Vermeylenstraat,5,51.177152,3.7306505,0,0,0,0,0,null,0,To renovate,0,F,403.0,2033.6134453781513,600.4962779156327
20243883,Berlaar,2590,295000,House,3,151,Montystraat,20,51.1164297,4.6428213,0,0,1,0,0,Installed,0,To be done up,0,F,264.0,1953.6423841059602,1117.4242424242425
20244274,Gent,9000,320000,Mixed use building,4,170,Tolhuislaan,183,51.0656237,3.7266964,0,0,0,0,0,Hyper equipped,2,As new,0,B,45.0,1882.3529411764705,7111.111111111111
20243819,Kortemark,8610,465000,Villa,4,269,Kapellestraat,1,51.034719,3.0371232,0,0,1,0,0,Installed,0,Good,0,C,566.0,1728.6245353159852,821.5547703180212
20244273,Gent,9000,2200000,Mixed use building,7,520,Oudburg,7-9ABC-11,51.0581177,3.723943299999999,0,0,0,0,0,Installed,2,To be done up,0,C,295.0,4230.7692307692305,7457.627118644068
20236447,Liedekerke,1770,409000,House,4,250,Muilenstraat,134,50.87836249999999,4.0970766,0,0,1,66,800,Hyper equipped,2,As new,0,C,952.0,1636.0,429.6218487394958
20238091,Wezembeek-Oppem,1970,495000,House,3,144,Avenue Des Cygnes Sauvages,7,50.8599297,4.4851965,0,0,1,13,500,Not installed,3,To renovate,0,E,828.0,3437.5,597.8260869565217
20236921,Onze-Lieve-Vrouw-Waver,2861,528000,House,3,185,Mechelbaan,13,51.054845,4.5703174,0,0,1,0,0,Installed,0,Good,0,C,1186.0,2854.054054054054,445.1939291736931
20236448,Asse,1730,579000,House,3,187,Asbeekstraat,39,50.9057689,4.1640496,0,0,1,13,2000,Installed,4,Good,0,D,2491.0,3096.256684491979,232.43677238057006
20235537,Vilvoorde,1800,649000,House,4,213,Leliestraat,6,50.9327675,4.447890399999999,0,0,0,0,150,Hyper equipped,4,As new,0,B,374.0,3046.9483568075116,1735.2941176470588
20238292,Brakel,9660,2125000,Villa,5,519,Boekendries,4,50.82807589999999,3.7595796,0,1,1,210,4725,Hyper equipped,4,As new,0,B,6044.0,4094.412331406551,351.5883520847121
20250169,Bouillon Ucimont,6833,59900,House,3,170,Rue De La Fontinelle,3,49.8314907,5.0564859,0,0,1,0,30,null,3,To renovate,0,G,289.0,352.3529411764706,207.26643598615917
20251958,Brugge,8000,195000,House,3,160,Ronsaardbekestraat,56,51.2252126,3.2315633,0,0,0,0,0,null,4,To renovate,0,F,,1218.75,
20247737,Dendermonde,9200,249000,House,3,177,Galeidestraat,4,51.0226714,4.0933765,0,0,0,0,0,null,0,To renovate,0,F,239.0,1406.7796610169491,1041.8410041841005
20245422,Gent,9000,269000,House,3,85,Tussen Bermen,21,51.0307001,3.7312805,0,0,1,0,0,Installed,2,To renovate,0,E,104.0,3164.705882352941,2586.5384615384614
20250165,Geraardsbergen,9500,269000,House,3,155,Denderstraat,7,50.7736857,3.8821452,0,0,1,20,170,Hyper equipped,2,Good,0,B,250.0,1735.483870967742,1076.0
20250409,Trois-Ponts,4980,275000,Apartment block,3,265,Place Communale,8,50.3719084,5.871252699999999,0,0,1,15,69,Semi equipped,2,To be done up,0,B,190.0,1037.7358490566037,1447.3684210526317
20250228,Herzele,9550,295000,House,3,147,Melkerijstraat,46,50.8941203,3.8817575,0,0,1,35,53,null,0,Good,0,E,388.0,2006.8027210884354,760.3092783505155
20251621,Gavere,9890,376463,House,3,120,Slaapstraat,8,50.9145933,3.6505555,0,0,1,14,158,Hyper equipped,3,As new,0,null,238.0,3137.1916666666666,1581.7773109243697
20251161,Tremelo,3128,380000,House,2,134,Schaluinstraat,14,50.996638,4.7378895,0,0,1,0,0,Installed,4,Good,0,F,1018.0,2835.820895522388,373.2809430255403
20249804,Jabbeke,8490,475000,House,4,330,Kasteeldreef,8,51.1830368,3.1247864,1,0,0,0,0,null,4,As new,0,C,3564.0,1439.3939393939395,133.27721661054994
20249807,Rekkem,8930,539000,House,3,175,Steenland,23,50.7828307,3.1705069,0,0,1,0,0,null,0,Good,0,A,855.0,3080.0,630.4093567251462
20250470,Baarle-Hertog,2387,550000,Villa,2,251,Turnhoutseweg,31,51.4331587,4.9319887,1,0,0,0,0,null,4,Good,0,C,1554.0,2191.235059760956,353.92535392535393
20249584,Bonheiden,2820,679000,House,5,285,Putsesteenweg,152,51.035331,4.528967499999999,0,0,1,29,414,Installed,2,null,0,A,645.0,2382.4561403508774,1052.7131782945737
20227566,Vlezenbeek,1602,199000,House,3,130,Pedestraat,107,50.8187758,4.222168,0,0,1,0,0,Semi equipped,2,To renovate,0,E,508.0,1530.7692307692307,391.73228346456693
20228144,Herselt,2230,348500,House,3,199,Westerlosesteenweg,154,51.0742844,4.9043437,0,0,1,0,0,Semi equipped,3,Good,0,D,678.0,1751.2562814070352,514.0117994100295
20242735,Geluwe,8940,169000,House,3,165,Zuidstraat,38,50.8081417,3.077317,0,0,1,0,0,Installed,0,To renovate,0,E,250.0,1024.2424242424242,676.0
20243269,Oosterzele,9860,499000,House,5,205,Achterdries,45,50.9507355,3.8002813,1,0,1,0,0,null,4,Just renovated,0,C,746.0,2434.1463414634145,668.9008042895442
20243041,Eke,9810,590000,House,5,220,Parkwijk,94,50.9602893,3.6328424,0,0,1,0,0,Installed,0,Good,0,C,639.0,2681.818181818182,923.3176838810641
20243992,Gent Drongen,9031,1050000,House,3,408,Noordhoutstraat,19,51.04015949999999,3.6110813,0,0,1,0,0,Hyper equipped,4,To be done up,0,C,5018.0,2573.529411764706,209.24671183738542
20235603,Torhout,8820,249900,House,3,139,Lichterveldestraat,69,51.0597769,3.1055141,0,0,1,11,16,null,3,Good,0,E,111.0,1797.841726618705,2251.3513513513512
20235577,Merksem,2170,289000,Mixed use building,2,227,Nieuwdreef,29,51.24420079999999,4.4419999,0,0,1,15,0,Installed,2,Good,0,B,124.0,1273.1277533039647,2330.6451612903224
20245375,Ninove,9400,219000,House,2,125,Nederhasseltstraat,344,50.8443675,3.9600558,0,0,1,0,345,Installed,2,To renovate,0,F,508.0,1752.0,431.1023622047244
20244856,Virton,6760,230000,House,4,153,Rue Du Bosquet,47,49.56492189999999,5.5414861,0,0,1,50,0,Semi equipped,4,To renovate,0,G,2690.0,1503.2679738562092,85.50185873605948
20247186,Escanaffles,7760,265000,House,3,150,Rue Monseigneur Descamps,5,50.7538665,3.4486263,0,0,1,0,0,Installed,2,Just renovated,0,B,161.0,1766.6666666666667,1645.9627329192547
20246038,Lokeren,9160,275000,House,4,140,Oude-Bruglaan,156,51.1059442,4.0059041,0,0,1,10,0,null,2,As new,0,C,208.0,1964.2857142857142,1322.1153846153845
20246807,Geraardsbergen,9500,275000,Mixed use building,4,202,Gaffelstraat,80,50.7738792,3.8749486,0,0,0,0,0,Installed,2,Good,0,B,,1361.3861386138615,
20246805,Geraardsbergen,9500,275000,House,4,202,Gaffelstraat,80,50.7738792,3.8749486,0,0,0,0,0,Installed,2,Good,0,B,,1361.3861386138615,
20245617,Beveren- Leie,8791,299000,House,3,800,Kerkdreef,17,50.8748126,3.3452598,1,0,1,0,0,Installed,4,null,0,F,685.0,373.75,436.4963503649635
20246517,Resteigne,6927,310000,House,2,100,Rue D'Hervin,9,50.0831135,5.1846138,1,0,1,0,0,Installed,4,As new,0,D,1369.0,3100.0,226.4426588750913
20246021,Brugge,8200,335000,House,3,110,Wulgenbroekstraat,32,51.1753352,3.2293562,0,0,0,0,0,null,2,As new,0,C,220.0,3045.4545454545455,1522.7272727272727
20246608,Archennes,1390,350000,House,4,232,Petite Rue Des Prés,8,50.7388387,4.661693,0,0,1,21,0,null,3,To renovate,0,F,578.0,1508.6206896551723,605.5363321799308
20246366,Musson,6750,375000,House,2,146,Rue Du 113Ème Régiment D'Infanterie,19,49.5495533,5.6426206,0,0,0,0,500,Installed,4,Good,0,B,987.0,2568.4931506849316,379.9392097264438
20247461,Gavere,9890,479000,House,3,217,Vossestraat,40,50.9317872,3.6618412,0,0,0,0,1369,Hyper equipped,0,Just renovated,0,B,1591.0,2207.3732718894007,301.06851037083595
20244551,Kraainem,1950,549000,House,3,157,Louis Niemegeersstraat,15,50.8623935,4.455318600000001,0,0,1,15,420,Hyper equipped,3,To be done up,0,D,726.0,3496.815286624204,756.198347107438
20248863,Wontergem,9800,615000,House,4,251,Dentergemstraat,101,50.9768619,3.4412678,0,0,0,0,0,Installed,4,Good,0,D,2673.0,2450.199203187251,230.07856341189674
20244987,Gavere,9890,675000,House,5,446,Nieuwlandstraat,23,50.935714,3.6364274,0,0,0,0,0,null,4,As new,0,C,2118.0,1513.4529147982062,318.6968838526912
20246454,Pelt,3910,995000,Villa,4,454,Woudweg,2,51.2524386,5.4520136,0,0,0,0,0,null,4,As new,0,B,2308.0,2191.6299559471368,431.10918544194107
20245449,Knokke-Heist,8301,1095000,House,6,262,Middenschip,81,51.32983770000001,3.2479424,0,0,1,0,0,Hyper equipped,3,As new,0,A,285.0,4179.3893129770995,3842.1052631578946
20241168,Han-Sur-Lesse,5580,249000,House,8,340,Rue D'Hamptay,63,50.1244413,5.18922,0,0,1,30,520,Semi equipped,2,To renovate,0,B,520.0,732.3529411764706,478.84615384615387
20241167,Han-Sur-Lesse,5580,249000,Apartment block,8,340,Rue D'Hamptay,63,50.1244413,5.18922,0,0,1,30,520,Semi equipped,2,To renovate,0,B,520.0,732.3529411764706,478.84615384615387
20240917,Lede,9340,299000,House,4,225,Hoogstraat,13,50.9643783,3.9770907,0,0,1,14,95,Hyper equipped,2,Good,0,C,210.0,1328.888888888889,1423.8095238095239
20240088,Willebroek,2830,369000,Mixed use building,3,148,Eendrachtstraat,15,51.0588536,4.3587237,0,0,0,0,0,Installed,0,Good,0,B,160.0,2493.2432432432433,2306.25
20241289,Oud-Heverlee,3050,547000,House,5,244,Ophemstraat,105,50.8297135,4.6480041,0,0,0,0,0,null,4,To renovate,0,D,1400.0,2241.8032786885246,390.7142857142857
20237239,Hove,2540,595000,House,3,186,Rozenlei,35,51.1556077,4.4698277,0,0,1,21,0,null,0,Good,0,C,333.0,3198.9247311827958,1786.7867867867867
20242587,Kontich,2550,750000,Apartment block,6,210,Molenstraat,31,51.1357307,4.4431972,0,0,1,10,0,Installed,2,Just renovated,0,B,240.0,3571.4285714285716,3125.0
20230284,Haaltert,9450,349000,House,3,249,Muisstraat,46,50.905271,4.0093647,0,0,1,0,0,Installed,2,Good,0,F,609.0,1401.6064257028113,573.0706075533661
20231150,Schoten,2900,419000,House,4,250,Constant Neutjensstraat,39,51.2520354,4.4945695,0,0,1,17,91,Installed,2,As new,0,D,172.0,1676.0,2436.046511627907
20232412,Ronse,9600,580000,Mansion,3,210,Savooistraat,168,50.764528,3.6262417,0,0,1,0,0,Installed,4,Good,0,E,5219.0,2761.904761904762,111.13240084307338
20243862,Brakel,9660,258000,House,3,185,Meerbeekstraat,29,50.80560819999999,3.760055,0,0,1,0,0,null,0,To renovate,0,E,295.0,1394.5945945945946,874.5762711864406
20243914,Lokeren,9160,329000,House,3,150,Doorslaardam,35,51.1178531,3.941584,0,0,1,50,650,Installed,4,To renovate,0,F,899.0,2193.3333333333335,365.96218020022246
20243794,Knokke-Heist,8300,945000,House,4,158,Graaf Jansdijk,197,51.3387204,3.3059909,0,0,1,0,0,Hyper equipped,0,Just renovated,0,B,166.0,5981.012658227848,5692.77108433735
20243867,De Haan,8420,1195000,House,4,202,Koninklijke Baan,76,51.2796904,3.0364594,0,0,1,0,0,Hyper equipped,0,As new,1,C,383.0,5915.841584158416,3120.1044386422977
20243792,Knokke-Heist,8300,1495000,House,7,240,Gulden-Vliesstraat,14,51.3456361,3.2874048,0,0,1,0,0,Hyper equipped,0,Good,0,A,75.0,6229.166666666667,19933.333333333332
20225414,Mechelen,2800,395000,House,2,108,Kerkhoflei,62,51.0380391,4.4829576,0,0,1,0,61,Installed,2,As new,0,B,111.0,3657.4074074074074,3558.5585585585586
20226056,Lichtaart,2460,669000,House,4,495,Hoebenschot,27,51.2275831,4.8963338,0,0,1,0,0,Semi equipped,4,Good,0,B,,1351.5151515151515,
20239109,Wetteren,9230,250000,House,3,84,Koophandelstraat,7,50.9992643,3.865803199999999,0,0,1,4,0,Installed,2,Just renovated,0,B,60.0,2976.190476190476,4166.666666666667
20238355,Dilbeek,1703,320000,House,3,135,Zaaistraat,25,50.8333163,4.211095,0,0,1,30,75,Hyper equipped,2,Good,0,D,213.0,2370.3703703703704,1502.3474178403756
20238356,Hoegaarden,3320,325000,House,3,150,Boterstraat 16,16,50.7654784,4.9212399,0,0,1,30,280,Hyper equipped,3,Good,0,E,480.0,2166.6666666666665,677.0833333333334
20235926,Oudenaarde,9700,459000,Mansion,5,280,Abdijstraat,17,50.85632400000001,3.6309652,0,0,1,0,0,null,0,Good,0,D,420.0,1639.2857142857142,1092.857142857143
20237631,Geraardsbergen,9500,525000,House,5,228,Groendal,2,50.7708606,3.8932793,1,0,0,0,0,Installed,0,Good,0,C,,2302.6315789473683,
20237630,Geraardsbergen,9500,525000,Mixed use building,5,228,Groendal,2,50.7708606,3.8932793,1,0,0,0,0,Installed,0,Good,0,C,,2302.6315789473683,
20250611,Ronse,9600,109500,House,2,102,Opgeëistenstraat,13,50.7511071,3.5928566,0,0,0,0,0,Semi equipped,2,To renovate,0,D,95.0,1073.5294117647059,1152.6315789473683
20247246,Temse,9140,210000,House,1,116,Sint-Jorisstraat,13,51.125571,4.2248522,0,0,1,0,0,Installed,2,Good,0,D,60.0,1810.344827586207,3500.0
20251012,Mont-Sur-Marchienne,6032,219000,House,3,130,Rue Neuve,50,50.3920651,4.415325999999999,0,0,1,0,0,Semi equipped,3,Good,0,D,55.0,1684.6153846153845,3981.818181818182
20246990,Heist-Op-Den-Berg,2220,238000,House,3,140,Molenstraat,48,51.0791607,4.7184767,0,0,1,0,0,Installed,0,To renovate,0,F,,1700.0,
20250887,Eeklo,9900,299000,House,6,253,Tieltsesteenweg,69,51.18357899999999,3.555641,0,0,0,0,0,Semi equipped,3,To be done up,0,F,463.0,1181.8181818181818,645.7883369330453
20250853,Wetteren,9230,299500,House,3,168,Serskampsteenweg,97,51.000093,3.892807999999999,0,0,0,0,0,null,4,Good,0,C,145.0,1782.7380952380952,2065.5172413793102
20245347,Gent,9000,315000,House,3,107,Tussen Bermen,23,51.030721,3.7313785,0,0,1,0,0,Installed,2,Good,0,D,92.0,2943.92523364486,3423.913043478261
20250398,Tienen,3300,329000,House,5,212,Veldstraat,16,50.8123098,4.9246609,0,0,1,0,0,Installed,3,Good,0,D,676.0,1551.8867924528302,486.68639053254435
20251671,Bruxelles,1120,395000,House,3,125,Avenue Des Croix De Guerre,344,50.89572630000001,4.3920882,0,0,1,25,0,Hyper equipped,2,To be done up,0,E,118.0,3160.0,3347.4576271186443
20247388,Kortrijk,8500,419500,Villa,3,186,Koolkappersstraat,20,50.8418414,3.2727437,0,0,0,0,0,null,0,To be done up,0,E,772.0,2255.3763440860216,543.3937823834196
20247390,Marke,8510,420000,House,4,335,Edward Vermeulenstraat,23,50.790221,3.239019,0,0,0,0,0,null,0,To renovate,0,D,910.0,1253.7313432835822,461.53846153846155
20252007,Leuven Kessel-Lo,3010,459000,House,3,145,Vosseweg,12,50.8765694,4.7441128,0,0,1,0,0,Hyper equipped,4,Good,0,D,590.0,3165.5172413793102,777.9661016949152
20250806,Libramont-Chevigny,6800,530000,House,4,182,Champ Colin,54,49.9134105,5.4003076,0,0,1,30,0,Hyper equipped,4,As new,0,A,834.0,2912.087912087912,635.4916067146283
20250886,Tremelo,3120,995000,Villa,5,258,Van Meerstraetenlaan,6,51.0163646,4.7247669,0,1,0,0,0,null,4,As new,0,B,1669.0,3856.5891472868216,596.1653684841223
20228872,Overijse,3090,495000,Villa,4,491,Duisburgsesteenweg,11,50.787201,4.5367242,0,0,1,61,489,Semi equipped,4,To renovate,0,F,1011.0,1008.1466395112017,489.6142433234421
20229588,Lochristi,9080,549000,Country cottage,4,200,Brandstraat,24,51.07123199999999,3.8602787,1,0,1,0,0,Semi equipped,4,Good,0,D,998.0,2745.0,550.1002004008016
20226966,Gavere Semmerzake,9890,575000,House,2,375,Dorpstraat,69,50.9454064,3.6708656,0,0,1,75,480,Hyper equipped,4,Good,0,B,1227.0,1533.3333333333333,468.62265688671556
20227722,Herent,3020,615000,Villa,4,224,Maleizenstraat,46,50.8939076,4.6621438,0,0,1,0,751,Hyper equipped,4,To renovate,0,C,1211.0,2745.535714285714,507.8447563996697
20242940,Oostende,8400,192500,House,4,287,Leeuwerikenstraat,81,51.2119863,2.9080866,0,0,0,0,0,null,0,To renovate,0,F,125.0,670.7317073170732,1540.0
20241092,Zottegem,9620,349000,Mixed use building,4,168,Leeuwergemstraat,8,50.88867519999999,3.833684,0,0,0,0,0,null,0,To renovate,0,F,1880.0,2077.3809523809523,185.63829787234042
20243233,Nijlen,2560,458000,House,3,189,Tulpenstraat,31,51.1611202,4.664206300000001,0,0,1,0,0,Hyper equipped,3,Just renovated,0,A,495.0,2423.2804232804233,925.2525252525253
20243432,Oosterzele,9860,1099000,House,4,215,Korte Ambachtstraat,6,50.9512096,3.8140971,0,0,0,0,0,Installed,0,Good,0,C,1570.0,5111.627906976744,700.0
20243431,Oosterzele,9860,1099000,Mixed use building,4,215,Korte Ambachtstraat,6,50.9512096,3.8140971,0,0,0,0,0,Installed,0,Good,0,C,1570.0,5111.627906976744,700.0
20243461,Knokke-Heist,8301,1895000,Villa,5,318,Jozef Nellenslaan,5,51.34322969999999,3.2640365,0,0,1,0,0,Hyper equipped,4,Good,0,C,420.0,5959.1194968553455,4511.9047619047615
20221585,Antwerpen,2060,520000,Mansion,5,273,Familiestraat,43,51.2258702,4.4343747,0,0,0,0,92,Installed,2,Good,0,C,253.0,1904.7619047619048,2055.3359683794465
20236251,Zottegem,9620,249000,House,3,177,Kasteelpad,10,50.8743393,3.808443,0,0,1,12,170,Installed,3,To renovate,0,F,359.0,1406.7796610169491,693.5933147632312
20232647,Zottegem,9620,310000,House,3,276,Acacialaan,27,50.8683389,3.8194577,0,0,1,18,0,Hyper equipped,0,Good,0,D,152.0,1123.1884057971015,2039.4736842105262
20232794,Gistel,8470,385000,House,4,151,Brugse Baan,41,51.15725279999999,2.9768956,0,0,1,40,242,null,0,Good,0,B,411.0,2549.6688741721855,936.7396593673966
20233882,Waterloo,1410,395000,House,3,101,Allée Des Phalènes,17,50.6973713,4.4097608,0,0,1,10,100,Hyper equipped,3,Good,0,D,200.0,3910.891089108911,1975.0
20234341,Overijse,3090,415000,Town house,3,151,Jan Fijtlaan,4,50.7859341,4.5105909,0,0,1,12,70,Installed,2,Good,0,B,194.0,2748.344370860927,2139.175257731959
20235495,Wijgmaal,3018,469000,House,3,161,Sint-Hadrianusstraat,10,50.9266455,4.7036411,1,0,1,25,0,null,2,Just renovated,0,C,282.0,2913.0434782608695,1663.1205673758866
20236013,Gent Sint-Amandsberg,9040,535000,House,4,154,Nijverheidstraat,103,51.0506665,3.7444125,1,0,1,0,42,Hyper equipped,2,Good,0,B,118.0,3474.025974025974,4533.8983050847455
20245401,Lede,9340,349000,House,3,130,Steenstraat,22,50.9642163,3.999312,0,0,1,0,0,Hyper equipped,2,As new,0,B,114.0,2684.6153846153848,3061.40350877193
20246388,Gent,9050,359000,House,3,200,Harmoniestraat,21,51.03778750000001,3.7400853,0,0,0,0,0,null,2,Good,0,C,170.0,1795.0,2111.764705882353
20246716,Tremelo Baal,3120,370000,House,4,194,Remerstraat,36,51.0050424,4.7539486,0,0,1,0,0,Semi equipped,4,To renovate,0,E,2390.0,1907.2164948453608,154.81171548117155
20246452,Lier,2500,1350000,House,8,485,Lintsesteenweg,46,51.1258685,4.5436861,0,0,1,0,0,Hyper equipped,4,As new,0,B,14853.0,2783.505154639175,90.89072914562715
20226752,Seraing,4100,79000,House,1,70,Rue De La Cité Bergerie,42,50.5928878,5.4910842,0,0,0,0,55,Semi equipped,2,Good,0,G,181.0,1128.5714285714287,436.4640883977901
20240055,Brakel,9660,160000,House,3,138,Ronsesestraat,65,50.79557399999999,3.7528747,0,0,0,0,0,null,0,To renovate,0,F,337.0,1159.4202898550725,474.7774480712166
20241576,Middelkerke,8430,225000,House,3,154,Lombardsijdelaan,178,51.14981419999999,2.7573898,0,0,0,0,0,null,2,Good,0,D,147.0,1461.0389610389611,1530.6122448979593
20240880,Lissewege,8380,294000,House,3,126,Scharphoutstraat,13,51.2970727,3.1904573,0,0,0,0,100,Installed,2,As new,0,C,212.0,2333.3333333333335,1386.7924528301887
20240763,Eeklo,9900,299000,House,4,174,Zandstraat,47,51.179719,3.5614923,0,0,1,8,75,Installed,3,Good,0,D,240.0,1718.3908045977012,1245.8333333333333
20240716,Sint-Andries,8200,319000,House,3,135,Torhoutse Steenweg,301,51.1943107,3.1986318,0,0,0,0,95,null,4,Good,0,B,186.0,2362.962962962963,1715.0537634408602
20240862,Antwerpen,2050,429000,House,3,174,Pieter Doorlantlaan,2,51.230732,4.3847061,0,0,1,25,80,Installed,3,Just renovated,0,C,0.0,2465.5172413793102,inf
20240861,Antwerpen,2050,429000,Town house,3,174,Pieter Doorlantlaan,2,51.230732,4.3847061,0,0,1,25,80,Installed,3,Just renovated,0,C,0.0,2465.5172413793102,inf
20220403,Wavre,1300,300000,Mixed use building,1,121,Rue Constant Deraedt,25,50.7159774,4.6111678,0,0,0,0,0,Usa installed,2,Good,0,G,90.0,2479.3388429752067,3333.3333333333335
20231858,Tienen,3300,210000,House,3,185,Leuvenselaan,266,50.8128792,4.919578,0,0,0,0,30,null,2,To renovate,0,F,114.0,1135.1351351351352,1842.1052631578948
20231375,Hamme,9220,229000,House,4,165,Spoorwegstraat,52,51.0942048,4.1332119,0,0,1,40,130,null,2,Good,0,D,212.0,1387.878787878788,1080.188679245283
20227370,Sorinnes,5503,249000,Villa,5,160,Rue Marot,35,50.2565093,4.980964,1,0,1,150,1000,null,4,Good,0,E,,1556.25,
20230247,Gent,9000,299000,House,4,135,Rietstraat,22,51.06404329999999,3.7100673,0,0,1,7,0,Installed,2,Good,0,D,70.0,2214.814814814815,4271.428571428572
20228892,Zwalm,9630,549950,Villa,5,231,Boekelbaan,46,50.8519632,3.7301289,0,0,1,0,0,null,0,Good,0,C,1494.0,2380.7359307359307,368.1057563587684
20231155,Aartselaar,2630,595000,House,3,282,Pierstraat,300,51.1102398,4.364286799999999,0,0,1,26,64,Installed,2,Just renovated,0,A,228.0,2109.9290780141846,2609.6491228070176
20244108,Merelbeke,9820,469000,House,4,162,Meierij,65,50.9637728,3.720698,0,0,1,0,0,null,4,Good,0,D,1562.0,2895.061728395062,300.25608194622276
20244537,Berchem,2600,485000,House,3,164,Karel Coggestraat,51,51.1928196,4.4347344,0,0,1,15,30,Installed,0,Good,0,C,82.0,2957.317073170732,5914.634146341464
20244122,Lint,2547,595000,House,3,208,Duffelsesteenweg,145,51.12307360000001,4.4933325,0,0,1,0,0,Installed,3,As new,0,A,501.0,2860.576923076923,1187.624750499002
20239348,Bredene,8450,399000,House,4,192,Guido Gezellestraat,47,51.233149,2.974154,0,0,0,0,60,null,2,As new,0,A,142.0,2078.125,2809.8591549295775
20237291,Gent,9000,520000,House,5,187,Biekorfstraat,48,51.0567609,3.7438604,0,0,1,20,41,null,2,Good,0,C,121.0,2780.748663101604,4297.520661157025
20238415,Aarsele,8700,680000,Villa,5,445,Pastorijstraat,14,50.9965997,3.4244717,0,0,1,43,444,null,3,As new,0,B,686.0,1528.0898876404494,991.2536443148688
20237592,Aalst,9300,1195000,House,3,385,Wateringen,25,50.9432914,4.0121888,0,0,0,0,0,Hyper equipped,4,As new,0,B,1119.0,3103.896103896104,1067.917783735478
20247714,Deerlijk,8540,175000,House,2,110,Breestraat,71,50.8466118,3.3807148,0,0,0,0,0,null,0,Good,0,D,335.0,1590.909090909091,522.3880597014926
20251986,Virton,6760,295000,House,5,250,Rue Du Moulin,8,49.5659043,5.533608399999999,0,0,0,0,0,Semi equipped,3,To be done up,0,D,510.0,1180.0,578.4313725490196
20246406,Ledeberg,9050,318000,House,2,79,Guido Gezellestraat,33,51.0355453,3.7444451,0,0,1,0,0,Semi equipped,0,Just renovated,0,C,73.0,4025.3164556962024,4356.164383561644
20251483,Drongen,9031,329000,House,2,162,Antoon Catriestraat,192,51.0623143,3.6338133,0,0,0,0,0,null,4,Good,0,D,427.0,2030.8641975308642,770.4918032786885
20247396,Ronse,9600,385000,Mansion,2,230,Olifantstraat,18,50.744997,3.6051189,0,0,0,0,0,Hyper equipped,0,Just renovated,0,E,180.0,1673.9130434782608,2138.8888888888887
20252131,Laeken,1020,395000,House,4,217,Rue Ketels,21,50.87615359999999,4.3494758,0,0,1,24,0,Installed,2,Good,0,F,121.0,1820.2764976958526,3264.4628099173556
20247006,Hooglede,8830,491400,House,3,215,Corneel Heymansstraat,2,50.9724264,3.110781,0,0,1,0,0,null,0,Good,1,A,355.0,2285.5813953488373,1384.225352112676
20251281,Stabroek,2940,549000,House,4,211,Lepelstraat,39,51.3496941,4.3976513,0,0,1,0,0,Installed,2,null,0,A+,176.0,2601.895734597156,3119.318181818182
20247459,Melle,9090,596000,House,4,213,Boterbloemstraat,34,51.0049684,3.7841599,0,0,1,16,296,null,0,null,0,A,296.0,2798.1220657276995,2013.5135135135135
20251650,Nijlen Bevel,2560,799000,Villa,5,405,Nijlensesteenweg,84A,51.1424728,4.6849655,0,0,1,0,0,Installed,4,null,0,B,2159.0,1972.8395061728395,370.0787401574803
20251668,Kampenhout,1910,1099000,Villa,4,311,Patrijzenlaan,35,50.9343654,4.5570625,0,0,1,0,0,Hyper equipped,4,As new,0,B,1191.0,3533.7620578778137,922.7539882451721
20227569,Liège,4020,289000,House,4,211,Rue Herman Reuleaux,44,50.63787139999999,5.591502999999999,0,0,1,15,0,Installed,2,Good,0,E,111.0,1369.6682464454977,2603.6036036036035
20227779,Hoboken,2660,475000,House,4,175,Weerstandlaan,12A,51.185721,4.3698432,0,0,1,22,121,Installed,2,null,0,B,246.0,2714.285714285714,1930.8943089430895
20228088,Woluwe-Saint-Lambert,1200,1490000,House,5,290,Avenue Albert-Elisabeth,42,50.840844,4.4044644,0,0,1,0,650,Semi equipped,2,To renovate,0,E,781.0,5137.931034482759,1907.8104993597951
20242960,Izegem,8870,163000,House,3,145,Kapucijnenlaan,55,50.9203138,3.1959489,0,0,1,0,0,Semi equipped,0,To renovate,0,F,164.0,1124.1379310344828,993.9024390243902
20242782,Koekelare,8680,269000,House,4,223,Hovaerestraat,36,51.0934074,2.9706172,0,0,1,0,0,Semi equipped,0,To be done up,0,E,613.0,1206.2780269058296,438.8254486133768
20243067,Middelkerke,8430,271000,House,3,152,Oostendelaan,88,51.18683249999999,2.8251017,0,0,1,85,85,null,0,Good,0,F,283.0,1782.8947368421052,957.5971731448764
20242793,Houthulst,8650,349500,House,3,135,Koordendraaiershoek,15,50.9767297,2.9388708,0,0,1,0,0,Installed,0,Good,0,B,336.0,2588.8888888888887,1040.1785714285713
20243209,Lievegem,9930,495000,House,4,205,Oude Staatsbaan,54,51.133179,3.6015907,0,0,1,13,0,Hyper equipped,2,As new,0,A,114.0,2414.6341463414633,4342.105263157895
20243657,Knokke-Heist,8300,1365000,House,3,155,Graaf Jansdijk,362,51.3381676,3.3212073,0,0,1,0,0,Hyper equipped,2,As new,0,B,88.0,8806.451612903225,15511.363636363636
20209443,Bernissart,7321,285000,House,4,185,Rue Du Quénic,25,50.491442,3.6624023,0,0,1,135,365,Semi equipped,4,Good,0,D,574.0,1540.5405405405406,496.5156794425087
20222924,Antwerpen,2020,375000,House,3,183,Sint-Bernardsesteenweg,203,51.1876482,4.3762776,0,0,1,3,0,null,2,Good,0,C,98.0,2049.1803278688526,3826.530612244898
20234864,Virton,6760,165000,House,3,140,Grand-Rue,41,49.5681512,5.532373799999999,0,0,0,0,0,Semi equipped,2,To be done up,0,E,58.0,1178.5714285714287,2844.8275862068967
20234863,Virton,6760,165000,Apartment block,3,140,Grand-Rue,41,49.5681512,5.532373799999999,0,0,0,0,0,Semi equipped,2,To be done up,0,E,58.0,1178.5714285714287,2844.8275862068967
20236264,Maldegem,9990,235000,House,3,105,Westeindestraat,94,51.2083488,3.4397337,0,0,1,0,200,Installed,3,To renovate,0,F,310.0,2238.095238095238,758.0645161290323
20235277,Antwerpen,2018,349000,Mansion,4,337,Provinciestraat,151,51.2128895,4.4262447,0,0,0,0,166,Semi equipped,2,To renovate,0,F,283.0,1035.6083086053413,1233.2155477031802
20233696,Herzele,9550,349000,House,3,198,Beeklaan,37,50.8964732,3.876683099999999,1,0,1,20,100,null,3,Just renovated,0,C,280.0,1762.6262626262626,1246.4285714285713
20233409,Oudenaarde,9700,359000,House,3,104,Gevaertsdreef,87,50.84839600000001,3.6063882,0,0,1,0,0,Hyper equipped,2,As new,0,B,60.0,3451.923076923077,5983.333333333333
20234450,Leuven,3000,590000,House,3,241,Brabançonnestraat,93,50.8729327,4.708306299999999,0,0,1,0,115,Installed,3,Just renovated,0,C,255.0,2448.1327800829877,2313.725490196078
20234921,Sint-Martens-Latem,9830,895000,Villa,3,206,Bunderweg,18,51.0155289,3.6417306,0,0,0,0,0,Installed,4,Just renovated,0,C,600.0,4344.660194174758,1491.6666666666667
20233648,Woluwe-Saint-Lambert,1200,945000,House,5,370,Avenue Du Prince Héritier,177,50.84686259999999,4.4082877,0,0,1,20,110,Hyper equipped,2,Good,0,E,225.0,2554.054054054054,4200.0
20248781,Mons,7000,250000,House,2,135,Rue Fariaux,6,50.4543234,3.9652559,0,0,1,20,0,Semi equipped,2,Good,0,C,203.0,1851.851851851852,1231.527093596059
20245962,Wichelen,9260,329000,House,3,111,Krijgelstraat,19,50.9971097,3.954037,0,0,1,0,0,Hyper equipped,3,As new,0,D,218.0,2963.963963963964,1509.1743119266055
20246978,Mere,9420,515000,House,4,170,Diepestraat,148,50.9156173,3.9619414,0,0,1,0,0,Installed,3,Good,0,A,1290.0,3029.4117647058824,399.2248062015504
20245400,Lochristi,9080,575000,Villa,4,260,Groenstraat,33,51.16995158707687,3.847054566790956,0,0,1,0,3800,null,4,To be done up,0,C,3902.0,2211.5384615384614,147.36032803690415
20245720,Wachtebeke,9185,575000,Villa,4,260,Groenstraat,33,51.1698238,3.8471404,0,0,1,0,3800,null,4,To be done up,0,C,3902.0,2211.5384615384614,147.36032803690415
20245407,Erondegem,9420,624000,Villa,4,260,Impestraat,48,50.9513465,3.9484731,0,0,1,0,0,Installed,4,Good,0,C,1059.0,2400.0,589.2351274787535
20246199,Sint-Katelijne-Waver,2860,625000,House,4,303,Donk,5,51.0511188,4.5010068,0,0,1,32,0,Installed,4,Good,0,D,2324.0,2062.7062706270626,268.9328743545611
20226640,Mechelen,2800,369000,House,3,103,Oude Baan,95,51.065419,4.4566624,0,0,1,13,40,Installed,2,Good,0,B,120.0,3582.5242718446602,3075.0
20226643,Mechelen,2800,379000,House,3,129,Jan Bolstraat,41,51.032315,4.488443999999999,0,0,0,0,16,Installed,2,Good,0,C,80.0,2937.984496124031,4737.5
20240194,Geraardsbergen,9500,215000,House,2,75,Edingseweg,7,50.7739917,3.8931021,0,0,0,0,0,null,0,Just renovated,0,A,43.0,2866.6666666666665,5000.0
20239939,Beervelde,9080,298000,House,2,140,Cootveld,12,51.0796134,3.912766,0,0,1,0,0,Installed,0,To be done up,0,E,444.0,2128.5714285714284,671.1711711711712
20242580,Lier,2500,410000,House,2,168,Eeuwfeestlaan,232,51.1392772,4.5703195,0,0,1,0,238,Installed,2,Good,0,B,328.0,2440.4761904761904,1250.0
20242291,Gooik,1755,489000,House,5,220,Langestraat,19,50.760082,4.1070954,0,0,1,32,450,Hyper equipped,4,Good,0,C,962.0,2222.7272727272725,508.3160083160083
20241675,Hoevenen,2940,489000,House,5,193,Sint Hubertusstraat,7,51.306225,4.4000645,0,0,1,0,0,Hyper equipped,2,Good,0,B,231.0,2533.678756476684,2116.883116883117
20248587,Sint-Truiden,3800,358733,House,3,172,Gulden Bodem,40,50.8019192,5.2202655,0,0,1,15,0,Installed,0,Good,0,null,150.0,2085.656976744186,2391.5533333333333
20251251,Braine-Le-Château,1440,575000,House,5,141,Rue Du Chapitre,26,50.67247990000001,4.272154899999999,0,0,1,0,0,null,4,Good,0,A,550.0,4078.0141843971633,1045.4545454545455
20230361,Ronse,9600,139000,House,3,180,Elzelestraat,130,50.74512989999999,3.6101343,0,0,0,0,20,Not installed,2,To renovate,0,F,130.0,772.2222222222222,1069.2307692307693
20230737,Frasnes-Lez-Anvaing,7910,269900,House,3,162,Chaussée De Tournai,24A,50.729119,3.5499118,0,0,1,34,371,Installed,2,As new,0,A,525.0,1666.0493827160494,514.0952380952381
20231408,Anderlecht,1070,425000,House,3,155,Avenue De La Salubrité,16,50.8366541,4.2751245,0,0,0,0,65,Semi equipped,3,To be done up,0,G,200.0,2741.935483870968,2125.0
20232101,Lubbeek,3210,497000,House,4,198,Staatsbaan,272,50.89948219999999,4.8366777,0,0,0,0,890,null,4,Just renovated,0,null,1000.0,2510.10101010101,497.0
20221823,Geraardsbergen,9500,150000,Mixed use building,3,184,Buizemontstraat,21,50.7703095,3.8826631,0,0,0,0,0,Semi equipped,0,To renovate,0,D,,815.2173913043479,
20221819,Geraardsbergen,9500,150000,House,3,184,Buizemontstraat,21,50.7703095,3.8826631,0,0,0,0,0,Semi equipped,0,To renovate,0,D,,815.2173913043479,
20243888,Putte,2580,269000,House,3,173,Binnenweg,5,51.0567477,4.6675071,0,0,0,0,0,Installed,0,To be done up,0,F,,1554.913294797688,
20243851,Lombardsijde,8434,299000,House,3,84,Lombardsijdelaan,153,51.15281170000001,2.7613832,0,0,1,0,0,null,0,Good,1,C,225.0,3559.5238095238096,1328.888888888889
20243891,Heist-Op-Den-Berg,2220,325000,House,3,203,Herentalsesteenweg,35,51.0778101,4.743402,0,0,0,0,0,Installed,0,To renovate,0,F,,1600.9852216748768,
20243884,Putte,2580,390000,House,4,150,Heuvel,15,51.0468631,4.6309188,0,0,1,0,0,Installed,0,To be done up,0,F,1838.0,2600.0,212.18715995647443
20243877,Oudenburg,8460,409000,Villa,3,180,Blekerijstraat,18,51.1633301,3.0146502,0,0,1,50,350,null,0,Good,0,B,558.0,2272.222222222222,732.9749103942652
20243925,Beveren,9120,529000,House,3,205,Hagedoornstraat,24,51.2237824,4.2470957,1,1,1,20,250,Hyper equipped,3,As new,0,C,598.0,2580.487804878049,884.6153846153846
20236441,Grâce-Hollogne,4460,224000,House,2,75,Rue Alfred Defuisseaux,7,50.6331516,5.5026769,0,0,1,50,78,Installed,2,Good,0,D,190.0,2986.6666666666665,1178.9473684210527
20239837,Tielt,8700,295000,House,4,161,Stedemolenstraat,96,50.9948613,3.3166607,0,0,1,40,90,null,2,As new,0,D,159.0,1832.2981366459628,1855.3459119496856
20237261,Sint-Pieters-Leeuw,1600,339000,House,4,177,Arthur Quintusstraat,3,50.7906485,4.2774974,0,0,1,0,0,Semi equipped,3,To be done up,0,E,192.0,1915.2542372881355,1765.625
20240198,Zottegem,9620,465000,House,6,260,Wijnhuizestraat,13,50.8458511,3.8267705,0,0,1,0,0,null,0,Good,0,C,790.0,1788.4615384615386,588.6075949367089
20237411,Waregem,8790,499000,Villa,3,160,Koetsierstraat,10,50.8800811,3.4356408,1,0,1,0,0,Installed,4,Good,0,B,600.0,3118.75,831.6666666666666
20251553,Jumet,6040,190000,Apartment block,2,190,Rue De La Station,54,50.4413338,4.4335759,0,0,0,0,0,Not installed,3,Good,0,E,130.0,1000.0,1461.5384615384614
20250527,Oudenaarde,9700,315000,House,2,153,Koestraat,19,50.8494858,3.595454399999999,0,0,0,0,0,null,4,As new,0,B,245.0,2058.823529411765,1285.7142857142858
20250394,Sint-Andries,8200,329000,House,4,135,Pastoriestraat,238,51.20499940000001,3.1752566,0,0,0,0,200,null,4,Good,0,E,394.0,2437.037037037037,835.0253807106599
20250692,Loyers,5101,349000,House,3,142,Comognes De Loyers 24,24,50.4547886,4.957855,0,0,0,0,591,Installed,4,Good,0,E,700.0,2457.7464788732395,498.57142857142856
20248430,Oostende,8400,349000,House,7,250,Gerststraat,84,51.2173156,2.9100352,0,0,1,80,0,null,0,Good,0,B,105.0,1396.0,3323.809523809524
20247015,Hooglede,8830,462300,House,3,149,Marie Curiestraat,24,50.9823447,3.0764881,0,0,1,0,0,null,0,Good,1,A,420.0,3102.6845637583892,1100.7142857142858
20250695,Marke,8510,545000,House,3,201,Verruestraat,1,50.8004778,3.2437124,1,0,1,0,0,null,0,Good,0,B,566.0,2711.442786069652,962.8975265017668
20249578,Schilde,2970,875000,Villa,5,350,Ter Maelenbaan,27,51.2338707,4.5738115,1,1,1,0,0,Hyper equipped,4,Good,0,C,1309.0,2500.0,668.4491978609626
20247383,Bissegem,8501,995000,House,3,260,Meensesteenweg,201,50.82593809999999,3.2383297,0,0,1,50,0,Hyper equipped,0,As new,0,A,0.0,3826.923076923077,inf
20228249,Gembloux,5030,450000,House,5,346,Chaussée De Tirlemont,51,50.575925,4.701982999999999,1,0,1,60,950,Semi equipped,2,Good,0,C,1273.0,1300.578034682081,353.4956794972506
20241185,Ronse,9600,139000,House,3,134,Opgeëistenstraat,107,50.75318499999999,3.5915658,0,0,1,0,0,null,0,To renovate,0,E,110.0,1037.313432835821,1263.6363636363637
20243289,Liège,4000,150000,House,2,77,Rue Fond Des Tawes,136,50.6566073,5.5904418,0,0,1,16,95,Semi equipped,3,To be done up,0,D,185.0,1948.051948051948,810.8108108108108
20242961,Izegem,8870,165000,House,3,188,Stijn Streuvelsstraat,8,50.9227859,3.2306866,0,0,1,0,0,null,0,To be done up,0,D,135.0,877.6595744680851,1222.2222222222222
20243578,Lokeren,9160,240000,House,2,80,Oude-Bruglaan,25,51.1037845,4.0011974,0,0,1,0,0,null,2,As new,0,C,90.0,3000.0,2666.6666666666665
20243313,Bredene,8450,269000,House,3,151,Polderstraat,31,51.2270721,2.9622863,0,0,0,0,81,null,2,As new,0,D,195.0,1781.4569536423842,1379.4871794871794
20243737,Avelgem,8580,279000,House,3,149,Vredestraat,54,50.766609,3.4454254,0,0,1,0,0,null,2,Good,0,B,267.0,1872.4832214765102,1044.943820224719
20243513,Ronse,9600,285000,House,4,160,Kruisstraat,87,50.7523913,3.5951248,0,0,0,0,0,Installed,2,Just renovated,0,A,150.0,1781.25,1900.0
20243563,Zele,9240,299000,House,4,179,Langemuntstraat,50,51.0696893,4.0340701,0,0,0,0,0,Installed,3,To renovate,0,F,360.0,1670.391061452514,830.5555555555555
20243848,Boortmeerbeek,3190,385000,House,3,179,Beringstraat,52,50.977067,4.5713264,0,0,1,0,0,Hyper equipped,3,Good,0,E,570.0,2150.8379888268155,675.438596491228
20243389,Waregem,8792,595000,Villa,3,200,Nieuwstraat,135,50.8889923,3.358373,1,0,1,0,0,Hyper equipped,4,Good,0,B,,2975.0,
20242770,Nieuwpoort,8620,925000,Villa,4,270,Georges Rodenbachlaan,15,51.1442494,2.7128903,0,0,1,0,0,null,0,Good,0,D,883.0,3425.925925925926,1047.5651189127973
20223114,Harelbeke,8530,249500,House,4,190,Overleiestraat,113,50.8610322,3.3036799,0,0,1,12,190,Semi equipped,2,Good,0,B,360.0,1313.157894736842,693.0555555555555
20234014,Ichtegem,8480,199000,House,2,145,Oude Heirweg,41,51.1042783,3.0321724,0,0,1,80,242,null,4,Good,0,F,500.0,1372.4137931034484,398.0
20234099,Ronse,9600,298500,House,6,272,Elzeelsesteenweg,104-106,50.7429291,3.6145999,0,0,1,20,350,Semi equipped,3,To be done up,0,C,650.0,1097.4264705882354,459.2307692307692
20233536,Molenbeek-Saint-Jean,1080,365000,House,4,201,Rue Du Potaerdenberg,358,50.845958,4.2907059,0,0,0,0,0,Semi equipped,2,To renovate,0,G,185.0,1815.9203980099503,1972.972972972973
20234451,Haacht,3150,365000,House,4,301,Woeringstraat,16,50.942706,4.644032,0,0,1,0,635,Semi equipped,2,Good,0,C,810.0,1212.624584717608,450.61728395061726
20233802,Puurs-Sint-Amands,2870,395000,Villa,3,130,Hoogheide,73,51.0419571,4.2976106,0,0,0,0,0,Installed,4,To renovate,0,F,1163.0,3038.4615384615386,339.63886500429925
20231798,Reet,2840,435000,House,4,142,Beekvelden,107,51.10252759999999,4.4168215,0,0,1,0,0,null,0,Good,0,C,195.0,3063.3802816901407,2230.769230769231
20233589,Laeken (Bru.),1020,990000,Villa,4,470,Avenue De Meysse,71,50.8962478,4.3531645,0,0,1,0,0,Hyper equipped,4,Good,0,F,1165.0,2106.3829787234044,849.7854077253219
20213184,Sint-Niklaas,9100,435000,House,4,204,Goudenregenlaan,60,51.1621546,4.1603034,0,0,1,10,108,Installed,2,Good,0,B,274.0,2132.3529411764707,1587.5912408759125
20244848,Yvoir,5530,99000,Country cottage,2,40,Parc Résidentiel La Gayolle,443,50.33392,4.90372,0,0,1,16,262,null,0,Just renovated,1,null,262.0,2475.0,377.8625954198473
20244855,Hastière,5540,140000,Country cottage,1,42,Les Journaux,80,50.2059137,4.8079116,1,0,1,22,255,null,0,Good,0,null,255.0,3333.3333333333335,549.0196078431372
20246003,Gent,9000,347000,House,2,133,Ijskelderstraat,125,51.0647054,3.7082224,1,0,1,0,0,Installed,2,null,0,C,56.0,2609.0225563909776,6196.428571428572
20245277,Etalle Vance,6741,460000,House,3,160,Rue Des Gamelles,14,49.6722149,5.662513499999999,0,0,1,0,0,Installed,4,Good,0,C,807.0,2875.0,570.0123915737298
20245213,Deurne,2100,579000,House,4,197,Herentalsebaan,81,51.2096736,4.4565961,0,0,0,0,87,Hyper equipped,2,Good,0,C,168.0,2939.0862944162436,3446.4285714285716
20225489,Hastière,5541,124000,House,1,55,Lotissement Des Gaux,23,50.2128161,4.8324752,1,0,1,35,0,null,2,Good,1,G,56.0,2254.5454545454545,2214.285714285714
20226554,Vloesberg,7880,605250,House,3,300,Sainte-Anne,2,50.7569262,3.7298833,0,0,1,41,2300,Hyper equipped,4,Good,0,C,,2017.5,
20242956,Tielt,8700,235000,House,2,111,Bruggestraat,79,51.0027501,3.3245194,0,0,1,0,0,Installed,0,Good,0,C,123.0,2117.1171171171172,1910.5691056910568
20240056,Geraardsbergen,9500,265000,House,3,166,Solleveld,45,50.7705511,3.8571396,0,0,0,0,0,Installed,0,Good,0,F,511.0,1596.3855421686746,518.5909980430529
20239997,Ruisbroek,1601,295000,House,3,96,Reystraat,15,50.78645479999999,4.2947815,0,0,1,0,120,Installed,0,null,0,F,219.0,3072.9166666666665,1347.0319634703196
20241799,Berlaar,2590,295000,House,3,157,Heistsebaan,14,51.0841268,4.6710049,0,0,1,0,0,null,3,To renovate,0,E,335.0,1878.9808917197452,880.5970149253732
20241182,Kumtich,3300,319000,House,3,220,Hoxemsesteenweg,11,50.8131508,4.8851907,0,0,1,50,160,Not installed,2,To renovate,0,D,408.0,1450.0,781.8627450980392
20241058,Brugge,8000,320000,House,2,78,Visspaanstraat,32,51.2018147,3.2287355,0,0,0,0,0,null,2,Good,0,C,56.0,4102.5641025641025,5714.285714285715
20240737,Rijkevorsel,2310,329000,House,5,193,Prinsenpad,75,51.3463286,4.7525992,0,0,1,0,0,Installed,4,Good,0,F,925.0,1704.6632124352332,355.6756756756757
20241795,Kapellen,2950,329000,House,3,139,Bergstraat,83,51.315233,4.4217944,0,0,1,0,0,Installed,3,Good,0,E,409.0,2366.906474820144,804.40097799511
20240907,Haaltert,9450,359000,Town house,4,195,Kerkskenhoek,68,50.89279,3.9954579,0,0,1,15,0,Hyper equipped,3,As new,0,B,90.0,1841.025641025641,3988.8888888888887
20241366,Sint-Niklaas,9100,425000,House,4,167,Puitvoetstraat,189,51.142877,4.165629,0,0,1,0,0,Hyper equipped,3,As new,0,B,635.0,2544.9101796407185,669.2913385826772
20239950,Heusden,9070,765000,House,4,202,Blauwesteenstraat,74,51.0356357,3.8123459,0,0,0,0,849,Hyper equipped,0,Just renovated,0,A,1248.0,3787.128712871287,612.9807692307693
20240738,Zedelgem,8211,815000,Villa,5,227,Litterveldstraat,8,51.1238658,3.1119339,0,0,1,0,0,Installed,4,As new,0,B,7479.0,3590.308370044053,108.97178767214868
20241006,Dikkelvenne,9890,1190000,Country cottage,4,387,Gemeentehuisstraat,8,50.9193583,3.6903363,0,0,1,0,0,Semi equipped,4,To be done up,0,F,2350.0,3074.9354005167957,506.3829787234043
20242016,Reningelst,8970,1350000,Manor house,6,497,Driegoenstraat,4,50.83197560000001,2.7847933,0,0,1,0,0,null,4,As new,0,A,11362.0,2716.2977867203217,118.81710966379158
20232249,La Louvière,7100,225000,House,3,155,Rue De L'Yser,2,50.5130437,4.1942011,0,0,1,25,0,Installed,4,To renovate,0,G,482.0,1451.6129032258063,466.80497925311204
20229862,Lierde,9570,275000,House,3,226,Opstaldries,2,50.8025603,3.8253919,0,0,1,0,0,Installed,0,Good,0,C,830.0,1216.8141592920354,331.32530120481925
20228134,Jauche,1350,325000,House,3,244,Avenue Adrien Stas,13,50.6856128,4.9492657,0,0,1,50,348,Installed,3,Good,0,E,435.0,1331.967213114754,747.1264367816092
20230537,Heule,8501,348000,House,3,117,Magerstraat,37A,50.8612289,3.235957,0,0,1,0,0,Installed,0,Good,0,D,406.0,2974.358974358974,857.1428571428571
20230610,Sinaai-Waas,9112,615000,Villa,4,305,Wapenaarteinde,8,51.1498376,4.001465899999999,1,0,0,0,0,null,4,As new,0,D,1717.0,2016.3934426229507,358.18287711124054
20231992,Woluwe-Saint-Pierre,1150,670000,House,4,180,Rue Au Bois,85,50.8349156,4.4427797,0,0,0,0,170,Not installed,2,To renovate,0,G,270.0,3722.222222222222,2481.4814814814813
20231226,Wambeek,1741,695000,House,4,358,Kattestraat,16,50.8654854,4.1303035,0,0,1,23,2300,Installed,4,Good,0,B,2625.0,1941.340782122905,264.76190476190476
20231355,Roosdaal,1760,749000,Villa,3,302,Keyerberg,1,50.8392177,4.1217536,0,0,1,48,820,Hyper equipped,4,As new,0,B,1575.0,2480.1324503311257,475.55555555555554
20243943,Lokeren Eksaarde,9160,365000,House,3,175,Kasteeldreef,70,51.1490053,3.9576619,0,0,1,35,800,null,3,To be done up,0,D,1002.0,2085.714285714286,364.27145708582833
20243941,Lokeren Eksaarde,9160,415000,Villa,4,217,Brielmolenstraat,49,51.13850249999999,3.9414094,0,0,1,15,650,null,4,To be done up,0,F,1020.0,1912.442396313364,406.8627450980392
20243882,Nieuwrode,3221,438000,House,3,261,Appelweg,100,50.9463494,4.8165984,0,0,0,0,0,Installed,0,To renovate,0,F,6483.0,1678.16091954023,67.56131420638593
20243942,Lokeren Eksaarde,9160,969000,Country cottage,3,190,Nieuwe Baan,29,51.1548028,3.9941784,0,0,1,20,20000,null,4,To be done up,0,F,20111.0,5100.0,48.1825866441251
20244121,Keerbergen,3140,1530000,House,4,528,Nieuwstraat,157,50.9983185,4.686473599999999,0,0,1,0,0,null,4,As new,0,B,5185.0,2897.7272727272725,295.08196721311475
20224765,Maarkedal Nukerke,9681,499000,Villa,3,257,Nitterveldstraat,5a,50.769759,3.6322234,0,0,1,37,800,Hyper equipped,4,Good,0,B,,1941.634241245136,
20236473,Antwerpen,2140,299900,House,2,148,Schildstraat,3,51.21184340000001,4.4360057,0,0,0,0,0,Installed,2,Good,0,D,170.0,2026.3513513513512,1764.1176470588234
20234777,Zaventem,1930,389000,House,4,215,Platanenstraat,8,50.8912857,4.4697546,0,0,1,23,60,null,2,Good,0,D,60.0,1809.3023255813953,6483.333333333333
20235828,Brakel,9660,440000,House,3,210,Ruiterij,19,50.8285723,3.7632249,0,0,0,0,0,Installed,0,Good,0,A,,2095.2380952380954,
20237265,Virton,6760,465000,House,6,268,Rue Du Maréchal Foch,53,49.5871911,5.5862953,0,0,1,45,200,Installed,4,Just renovated,0,C,420.0,1735.0746268656717,1107.142857142857
20236536,Kapelle-Op-Den-Bos,1880,490000,Villa,5,215,Oudstrijdersstraat,101,51.0087805,4.353349700000001,0,0,0,0,0,null,4,As new,0,B,459.0,2279.0697674418607,1067.5381263616557
20235652,Knokke,8300,1690000,Villa,3,291,Halvemaandreef,9,51.31842779999999,3.3045615,0,0,1,0,0,Hyper equipped,0,As new,0,A,732.0,5807.560137457044,2308.743169398907
20250684,Bièvre,5555,170000,House,4,168,Rue De La Gare,11,49.9387698,5.0223885,0,0,0,0,200,Installed,3,To be done up,0,E,385.0,1011.9047619047619,441.5584415584416
20247456,Gentbrugge,9050,189000,Apartment block,1,74,Jules De Saint-Genoisstraat,104,51.0282424,3.7567544,0,0,0,0,0,null,0,Good,0,C,74.0,2554.054054054054,2554.054054054054
20249963,Juprelle,4450,269000,House,4,120,Rue D'Anixhe,155,50.7031976,5.5695488,0,0,1,60,280,Installed,2,Good,0,F,376.0,2241.6666666666665,715.4255319148937
20248020,Izegem,8870,299000,Mixed use building,1,278,Meensesteenweg,210,50.9017351,3.1921612,0,0,0,0,0,Installed,0,Good,0,B,319.0,1075.5395683453237,937.3040752351097
20251674,Erpe-Mere,9420,465000,House,4,283,Bossestraat,41,50.94634989999999,3.9763002,0,0,1,0,0,Installed,2,As new,0,C,746.0,1643.1095406360423,623.3243967828419
20250903,Liège,4000,599000,House,6,404,Rue De Campine,368,50.65521560000001,5.5675611,0,0,1,25,100,Installed,2,Good,0,C,285.0,1482.6732673267327,2101.754385964912
20249755,Brugge,8000,695000,House,6,340,Sint-Niklaasstraat,11/13,51.2073007,3.224525,0,0,0,0,0,Hyper equipped,2,Good,0,F,167.0,2044.1176470588234,4161.676646706587
20247399,Aalbeke,8511,1075000,Villa,4,312,Knokstraat,33,50.7787189,3.2336224,0,0,0,0,0,null,0,As new,0,A,1250.0,3445.5128205128203,860.0
20251391,Schilde,2970,1795000,House,4,353,Seringenlaan,17,51.237019,4.5562779,0,0,1,0,0,null,4,As new,0,C,4882.0,5084.985835694051,367.6771814829988
20228554,Beersel,1653,600000,Mixed use building,8,850,Alsembergsesteenweg,534,50.7292793,4.3041192,0,0,0,0,480,Installed,3,To renovate,0,E,944.0,705.8823529411765,635.5932203389831
20228553,Beersel,1653,600000,House,8,850,Alsembergsesteenweg,534,50.7292793,4.3041192,0,0,0,0,480,Installed,3,To renovate,0,E,944.0,705.8823529411765,635.5932203389831
20228552,Beersel,1653,600000,Apartment block,8,850,Alsembergsesteenweg,534,50.7292793,4.3041192,0,0,0,0,480,Installed,3,To renovate,0,E,944.0,705.8823529411765,635.5932203389831
20230246,Koksijde,8670,729000,House,5,233,Koninklijke Baan,247,51.1112706,2.6200408,0,0,0,0,330,null,4,As new,0,C,535.0,3128.755364806867,1362.6168224299065
20243615,Ransart,6043,349000,Villa,5,285,Rue Eau-Sur-Elle,25,50.4550511,4.465838499999999,0,0,0,0,0,Installed,4,Good,0,D,1777.0,1224.561403508772,196.3984243106359
20242792,Gits,8830,349000,House,3,285,Bruggesteenweg,30a,51.0133915,3.1135621,0,0,1,0,0,Installed,0,Good,0,D,982.0,1224.561403508772,355.39714867617107
20243480,Lebbeke,9280,399000,House,4,154,Hannaerden,11,50.9781475,4.090652,0,0,0,0,0,null,4,Good,0,F,1510.0,2590.909090909091,264.2384105960265
20243292,Sint-Andries,8200,400000,House,5,189,Gruitstraat,28,51.2030523,3.1887533,0,0,1,0,0,null,4,Good,0,B,181.0,2116.4021164021165,2209.9447513812156
20243519,Lierde,9570,649000,House,3,175,Stuivenberg,9C,50.82425079999999,3.8444936,0,0,1,16,500,Hyper equipped,3,As new,0,A,591.0,3708.5714285714284,1098.1387478849408
20242476,Izegem,8870,655000,House,3,357,Vijfwegenstraat,77,50.9275122,3.2144019,0,0,1,0,0,null,4,Good,0,F,1676.0,1834.733893557423,390.8114558472554
20221829,Seraing,4100,149000,House,2,57,Place Jean Volders,10,50.5885675,5.5135203,0,0,1,7,110,Not installed,3,Just renovated,0,G,260.0,2614.035087719298,573.0769230769231
20223076,Harelbeke,8530,245000,House,4,135,Beversestraat,139,50.8627742,3.3179848,0,0,1,17,65,Semi equipped,2,Good,0,C,201.0,1814.8148148148148,1218.9054726368158
20232247,Diksmuide,8600,156000,House,3,118,Grauwe Broedersstraat,19,51.0364255,2.8677688,0,0,0,0,0,null,3,Good,0,E,125.0,1322.0338983050847,1248.0
20234437,Lokeren,9160,215000,House,2,125,Kazernestraat,71,51.0996598,3.9901253,0,0,0,0,61,null,2,As new,0,B,120.0,1720.0,1791.6666666666667
20231387,Erpe-Mere,9420,270000,House,3,203,Langemunt,7,50.8914972,3.9401643,0,0,0,0,0,Installed,0,To be done up,0,F,209.0,1330.0492610837439,1291.866028708134
20233986,Affligem,1790,389000,House,5,270,Kerkstraat,1,50.905928,4.113750599999999,0,0,1,25,50,Hyper equipped,3,As new,0,C,321.0,1440.7407407407406,1211.8380062305296
20234960,Denderleeuw,9470,399000,House,5,130,Eikenlaan,31,50.8927214,4.0575775,0,0,1,0,0,Installed,2,Good,0,A,251.0,3069.230769230769,1589.6414342629482
20234268,Etterbeek,1040,410000,House,3,107,Luitenant Lippensstraat,3,50.8292625,4.3959872,0,0,1,30,0,Installed,2,To renovate,0,G,78.0,3831.7757009345796,5256.410256410257
20232809,Mechelen,2800,428000,House,2,192,Lange Pennincstraat,33,51.0246653,4.473471400000001,0,0,1,0,0,Hyper equipped,0,Good,0,B,,2229.1666666666665,
20246505,Saint-Nicolas,4420,235000,House,4,170,Rue Vertbois,83,50.6392234,5.5267758,0,0,1,10,250,Semi equipped,2,To renovate,0,E,620.0,1382.3529411764705,379.03225806451616
20246502,Sint-Kruis,8310,339000,House,4,125,Moerkerkse Steenweg,409,51.2135378,3.2607029,0,0,1,0,0,null,4,As new,0,A,131.0,2712.0,2587.7862595419847
20245684,Zonnebeke,8980,349000,House,3,150,Houtemstraat,1,50.8115149,2.9818995,0,0,1,0,0,null,0,Good,0,A,146.0,2326.6666666666665,2390.4109589041095
20245825,Antwerpen,2060,650000,House,4,250,Van Stralenstraat,61,51.222924,4.419478199999999,0,0,1,0,0,null,2,Good,0,B,127.0,2600.0,5118.110236220473
20245971,Meerbeke,9402,669000,House,7,250,Schalkem,17,50.8161891,4.0302794,0,0,1,0,1022,Installed,4,Good,0,B,1250.0,2676.0,535.2
20225546,Hastière,5542,155000,Country cottage,1,60,Allée Des Écureuils,180,50.2054798,4.8448557,0,0,1,22,300,null,0,Just renovated,0,G,,2583.3333333333335,
20241827,Baudour,7331,95000,House,3,97,Rue Du Marais,63,50.4728668,3.8497943,0,0,0,0,88,Semi equipped,2,Good,0,E,131.0,979.3814432989691,725.1908396946565
20242238,Durbuy,6940,235000,House,4,189,Vôye Dè Marlî,20,50.3474848,5.5609723,1,0,1,100,330,Installed,3,To be done up,0,D,742.0,1243.3862433862435,316.71159029649596
20241228,Harelbeke,8530,239000,House,3,148,Prosper De Donckerstraat,9,50.8525242,3.3122219,0,0,1,0,0,null,2,As new,0,D,156.0,1614.8648648648648,1532.051282051282
20242424,Lessines,7860,240000,House,4,218,Chaussée De Renaix,119,50.71313259999999,3.8195943,0,0,0,0,280,Semi equipped,4,To be done up,0,F,875.0,1100.9174311926606,274.2857142857143
20242347,Zwevegem,8550,249500,House,4,150,Luipaardstraat,26,50.816183,3.3164125,0,0,1,0,0,Installed,2,Good,0,B,,1663.3333333333333,
20241914,Roeselare,8800,299000,House,4,249,Spanjestraat,66,50.94621979999999,3.1352004,0,0,1,0,0,null,4,Good,0,E,301.0,1200.8032128514055,993.3554817275748
20242352,Ramegnies-Chin,7520,315000,Villa,4,200,Clos Bon Air,4,50.6371346,3.3478214,0,0,1,0,0,Installed,4,To be done up,0,E,700.0,1575.0,450.0
20240183,Lokeren,9160,326000,House,3,211,Gentse Steenweg,95,51.114642,3.955817299999999,0,0,0,0,0,Semi equipped,0,To be done up,0,E,552.0,1545.0236966824646,590.5797101449275
20241482,Halle,1500,350000,House,3,140,Beukenstraat,30,50.7199821,4.209353999999999,0,0,0,0,0,null,3,Good,0,D,372.0,2500.0,940.8602150537635
20241776,Bornem,2880,359000,House,4,124,Sint-Amandsesteenweg,248,51.0864227,4.2234127,0,0,1,0,0,Hyper equipped,2,As new,0,B,210.0,2895.1612903225805,1709.5238095238096
20241408,Gent,9000,379000,House,3,173,Kaarderijstraat,21,51.0556084,3.6972026,0,0,1,0,0,Installed,2,Good,0,B,238.0,2190.751445086705,1592.436974789916
20242046,Lebbeke,9280,399900,House,4,172,Hogeweg,1 A,50.99639819999999,4.1431556,0,0,0,0,0,null,4,As new,0,C,679.0,2325.0,588.9543446244477
20241676,Hoboken,2660,449000,House,3,198,Jos De Ceulaerdestraat,11,51.1791343,4.3722094,0,0,1,0,0,Hyper equipped,2,Good,0,B,,2267.6767676767677,
20241356,Ronse,9600,449000,Mansion,4,245,Léopold Sturbautstraat,21,50.7423648,3.5960547,0,0,1,0,0,Hyper equipped,3,As new,0,C,300.0,1832.6530612244899,1496.6666666666667
20240847,Blankenberge,8370,499000,Town house,3,248,De Smet De Naeyerlaan,69,51.3126281,3.1252828,0,0,1,6,0,Installed,2,As new,0,C,66.0,2012.0967741935483,7560.606060606061
20240998,Aartselaar,2630,524000,House,6,212,Jacob Smitslaan,56,51.1400138,4.3807087,1,0,1,0,0,Installed,0,Good,0,D,466.0,2471.698113207547,1124.4635193133047
20239910,Nieuwpoort,8620,635000,House,4,187,Jozef Cardijnlaan,61,51.13964190000001,2.7347599,0,0,0,0,0,null,0,Good,0,A,296.0,3395.7219251336896,2145.2702702702704
20239139,Moorslede,8890,645000,House,5,404,Dadizeelsestraat,37 A,50.8898081,3.060878,0,1,0,0,0,null,3,As new,0,C,1577.0,1596.5346534653465,409.00443880786304
20240235,Mariakerke,9030,725000,House,4,424,Lusthoflaan,37,51.0763164,3.699298,0,0,0,0,0,Installed,0,To be done up,0,C,450.0,1709.9056603773586,1611.111111111111
20240718,Roeselare,8800,875000,House,5,471,Lodewijk Van Velthemstraat,7,50.9653074,3.1331359,0,0,0,0,0,null,4,To be done up,0,C,1598.0,1857.7494692144373,547.5594493116396
20236465,Sint-Martens-Latem,9831,1480000,Villa,4,321,Warandedreef,14,51.0088476,3.6138584,1,1,1,0,0,null,4,Good,0,F,3212.0,4610.591900311527,460.772104607721
20220643,Schilde,2970,779000,Villa,6,253,Zonneweelde,6,51.27106,4.562992299999999,0,0,1,71,615,Installed,4,Good,0,C,,3079.0513833992095,
20230775,Geraardsbergen,9500,175000,House,3,135,Weverijstraat,97,50.7760055,3.881931,0,0,0,0,0,Installed,2,Good,0,C,70.0,1296.2962962962963,2500.0
20230601,Emelgem,8870,245000,House,3,133,Ghistelstraat,53,50.9269913,3.23851,0,0,0,0,56,null,3,As new,0,C,205.0,1842.1052631578948,1195.121951219512
20231409,Meise,1861,325000,House,2,140,Neerpoorten,51,50.9669617,4.2987015,1,0,0,0,0,null,3,Good,0,E,398.0,2321.4285714285716,816.5829145728643
20231897,Gent,9000,385000,Mansion,4,162,Bijlokevest,89,51.04766499999999,3.711866799999999,0,0,0,0,74,null,2,To renovate,0,F,174.0,2376.543209876543,2212.6436781609195
20228145,Woluwe-Saint-Lambert,1200,415000,House,3,120,Avenue De La Licorne,18,50.8530721,4.4163739,0,0,1,14,52,Not installed,2,To renovate,0,G,155.0,3458.3333333333335,2677.4193548387098
20229456,Oudekapelle,8600,426550,Villa,4,320,Alveringemstraat,6,51.0142536,2.797296900000001,0,0,1,0,460,null,4,As new,0,D,790.0,1332.96875,539.9367088607595
20229863,Brakel,9660,445000,House,3,203,Valkenbergstraat,101,50.81663820000001,3.7516134,0,0,0,0,0,Installed,0,Good,0,B,536.0,2192.118226600985,830.223880597015
